p_cum,p_max,id_station,operateur,amenageur,longitude,latitude
672.0,200.0,FRPD1PSYSTOU,Power Dot France,Power Dot France,5.889135,48.680886
2448.5,200.0,FRPD1PITMCPV,Power Dot France,Power Dot France,0.354791,43.112049
262.0,120.0,FRPD1PLABGOL,Power Dot France,Power Dot France,6.438804,48.19225
672.0,200.0,FRPD1PSATBLT,Power Dot France,Power Dot France,7.503438,47.592707
36.0,18.0,FRS77E77475001,Bouygues E&S,Ecocharge77,2.947197,48.958482
2666.0,188.0,FRPD1PLCLLFL,Power Dot France,Power Dot France,-0.054514,47.702006
622.0,150.0,FRPD1PSTXLGV,Power Dot France,Power Dot France,1.261301,43.603033
3000.0,250.0,FRTSLP29658,Tesla,Tesla,44.908948,44.908948
132.0,60.0,FRPD1PITMLTY,Power Dot France,Power Dot France,3.983511,45.99286
22.0,22.0,FRPD1PMAILLA,Power Dot France,Power Dot France,7.389328,47.771241
672.0,200.0,FRPD1PBRISGA,Power Dot France,Power Dot France,-0.892783,47.688772
44.0,22.0,FRS77E77316004,Bouygues E&S,Ecocharge77,2.790265244,48.3798541
520.0,130.0,FRTSLP1754,Tesla,Tesla,43.603928,43.603928
792.0,200.0,FRPD1PHF1OLS,Power Dot France,Power Dot France,4.820359,45.715079
36.0,18.0,FRS77E77361001,Bouygues E&S,Ecocharge77,3.040816,48.899723
36.0,18.0,FRS77E77453001,Bouygues E&S,Ecocharge77,2.750641,48.52702
672.0,200.0,FRPD1PSYUALE,Power Dot France,Power Dot France,4.090151,44.140955
5000.0,250.0,FRTSLP29903,Tesla,Tesla,43.206224,43.206224
344.0,100.0,FRPD1PBRCERN,Power Dot France,Power Dot France,-0.914934,48.293805
8000.0,250.0,FRTSLP30379,Tesla,Tesla,49.709465,49.709465
7000.0,250.0,FRTSLP28778,Tesla,Tesla,46.548393,46.548393
44.0,22.0,FRS77E77490001,Bouygues E&S,Ecocharge77,3.0927511,49.046368
672.0,200.0,FRPD1PBRISAI,Power Dot France,Power Dot France,1.041848,44.8641
672.0,200.0,FRPD1PCHAPER,Power Dot France,Power Dot France,2.893208,42.680767
36.0,18.0,FRS77E77051001,Bouygues E&S,Ecocharge77,3.237932,48.416935
132.0,60.0,FRPD1PSYUPYA,Power Dot France,Power Dot France,4.541109,47.270782
3244.0,187.5,FRPD1PFRYNMS,Power Dot France,Power Dot France,4.359641,43.809834
132.0,60.0,FRPD1PITMVRQ,Power Dot France,Power Dot France,2.65028,50.501776
36.0,18.0,FRS77E77140001,Bouygues E&S,Ecocharge77,2.998514,48.469975
122.0,50.0,FRPD1PPDMTLS,Power Dot France,Power Dot France,1.433182,43.626348
772.0,100.0,FRPD1PMATPON,Power Dot France,Power Dot France,6.064458,48.917984
3000.0,250.0,FRTSLP27649,Tesla,Tesla,48.129176,48.129176
170.0,120.0,FRPD1PITMBFD,Power Dot France,Power Dot France,7.589601,48.374672
172.0,100.0,FRPD1PINTAGE,Power Dot France,Power Dot France,0.61846,44.180301
4000.0,250.0,FRTSLP29508,Tesla,Tesla,45.877092,45.877092
7000.0,250.0,FRTSLP29935,Tesla,Tesla,45.655436,45.655436
44.0,22.0,FRS77E77203001,Bouygues E&S,Ecocharge77,2.9502057,48.9963908
36.0,18.0,FRS77E77008001,Bouygues E&S,Ecocharge77,3.021658,48.97871
672.0,200.0,FRPD1PINTJAR,Power Dot France,Power Dot France,5.872343,49.161277
632.0,200.0,FRPD1PSYUNGT,Power Dot France,Power Dot France,5.34957,48.033164
122.0,50.0,FRPD1PWELSAJ,Power Dot France,Power Dot France,-0.915365,45.679358
244.0,50.0,FRPD1PBDMSTD,Power Dot France,Power Dot France,2.629185,48.567065
434.0,120.0,FRPD1PITMSLT,Power Dot France,Power Dot France,7.46401,48.275043
478.0,120.0,FRPD1PITMIPA,Power Dot France,Power Dot France,2.767517,42.625609
5000.0,250.0,FRTSLP26192,Tesla,Tesla,48.446612,48.446612
36.0,18.0,FRS77E77219001,Bouygues E&S,Ecocharge77,2.957987,48.822292
272.0,100.0,FRPD1PACCSOL,Power Dot France,Power Dot France,4.823807,45.637624
3000.0,250.0,FRTSLP30399,Tesla,Tesla,46.194771,46.194771
194.0,50.0,FRPD1PSYURUS,Power Dot France,Power Dot France,7.251535,48.493348
222.0,100.0,FRPD1PMBRHAZ,Power Dot France,Power Dot France,2.552345,50.736216
492.0,150.0,FRPD1PINVTAV,Power Dot France,Power Dot France,1.615394,47.768324
36.0,18.0,FRS77E77118001,Bouygues E&S,Ecocharge77,2.687649,48.945904
4000.0,250.0,FRTSLP29532,Tesla,Tesla,48.836648,48.836648
272.0,100.0,FRPD1PSSKLGD,Power Dot France,Power Dot France,6.038835,43.144916
2000.0,250.0,FRTSLP424918,Tesla,Tesla,46.46063,46.46063
122.0,50.0,FRPD1PITMDLP,Power Dot France,Power Dot France,1.674432,46.301622
459.5,187.5,FRPD1PACTSEG,Power Dot France,Power Dot France,2.677453,50.461016
1319.0,187.5,FRPD1PCPNWOP,Power Dot France,Power Dot France,6.17643,49.149649
7000.0,250.0,FRTSLP30029,Tesla,Tesla,45.722035,45.722035
632.0,200.0,FRPD1PHLFMTG,Power Dot France,Power Dot France,2.742603,48.003995
222.0,100.0,FRPD1PCRFRQV,Power Dot France,Power Dot France,5.599843,43.337981
972.0,100.0,FRPD1PCORSDZ,Power Dot France,Power Dot France,4.962704,48.64905
7000.0,250.0,FRTSLP20263,Tesla,Tesla,48.691108,48.691108
748.0,178.0,FRPD1PACCCHO,Power Dot France,Power Dot France,-0.842837,47.071476
272.0,200.0,FRPD1PMBRMAU,Power Dot France,Power Dot France,-0.738826,46.925654
1214.0,200.0,FRPD1PGDMISS,Power Dot France,Power Dot France,3.259342,45.520545
36.0,18.0,FRS77E77255001,Bouygues E&S,Ecocharge77,2.688477,48.511044
60.0,20.0,FRFASE33004,Fastned France,Fastned France,4.156034,45.679959
432.0,120.0,FRPD1PBBFLUN,Power Dot France,Power Dot France,4.117123,43.678013
7000.0,250.0,FRTSLP30249,Tesla,Tesla,46.796402,46.796402
46.0,24.0,FRS77E77192002,Bouygues E&S,Ecocharge77,2.87067,48.70882
1388.0,188.0,FRPD1PLCLLBN,Power Dot France,Power Dot France,-0.240239,44.928781
3000.0,250.0,FRTSLP11605,Tesla,Tesla,45.524705,45.524705
572.0,100.0,FRPD1PSYUACH,Power Dot France,Power Dot France,-1.662875,46.608377
36.0,18.0,FRS77E77179001,Bouygues E&S,Ecocharge77,2.8,48.4575
3672.0,150.0,FRTSLP1725,Tesla,Tesla,49.16423,49.16423
672.0,200.0,FRPD1PLBCLAO,Power Dot France,Power Dot France,3.656483,49.570199
36.0,18.0,FRS77E77102001,Bouygues E&S,Ecocharge77,2.62648,48.233624
572.0,100.0,FRPD1PIBSCLT,Power Dot France,Power Dot France,0.699041,47.335532
672.0,200.0,FRPD1PBCMNVL,Power Dot France,Power Dot France,-2.294602,47.517551
462.0,110.0,FRPD1PCARLPO,Power Dot France,Power Dot France,4.876425,43.978889
632.0,200.0,FRPD1PMATTHV,Power Dot France,Power Dot France,6.423706,48.246644
36.0,18.0,FRS77E77233001,Bouygues E&S,Ecocharge77,2.786925,48.999126
672.0,200.0,FRPD1PIBUCCL,Power Dot France,Power Dot France,2.91936,47.38302
832.0,200.0,FRPD1PHF1SRG,Power Dot France,Power Dot France,6.312445,46.22322
5000.0,250.0,FRTSLP1720,Tesla,Tesla,44.871519,44.871519
654.17025,200.0,FRPD1PMRCCNA,Power Dot France,Power Dot France,4.810014,45.316765
454.0,120.0,FRPD1PIBSCRG,Power Dot France,Power Dot France,2.069055,49.031546
122.0,50.0,FRPD1PGSTSTV,Power Dot France,Power Dot France,2.679619,48.869584
2000.0,250.0,FRTSLP30036,Tesla,Tesla,43.263079,43.263079
22.0,22.0,FRPD1PLABERA,Power Dot France,Power Dot France,0.45486,44.836667
1200.0,150.0,FRTSLP1728,Tesla,Tesla,47.787588,47.787588
4000.0,250.0,FRTSLP29713,Tesla,Tesla,43.818865,43.818865
772.0,100.0,FRPD1PSYUAST,Power Dot France,Power Dot France,5.180955,47.347708
1500.0,150.0,FRTSLP3018,Tesla,Tesla,50.336526,50.336526
1097.0,187.5,FRPD1PCORMBL,Power Dot France,Power Dot France,6.809088,47.528783
832.0,120.0,FRPD1PLCLLDN,Power Dot France,Power Dot France,0.089811,47.009363
344.0,100.0,FRPD1PCORDNK,Power Dot France,Power Dot France,2.379037,51.015197
36.0,18.0,FRS77E77040002,Bouygues E&S,Ecocharge77,2.561816,48.503139
22.0,22.0,FRPD1PENCBRB,Power Dot France,Power Dot France,2.573508,50.495685
6000.0,250.0,FRTSLP29933,Tesla,Tesla,46.143806,46.143806
36.0,18.0,FRS77E77308001,Bouygues E&S,Ecocharge77,2.743907,49.025669
36.0,18.0,FRS77E77188001,Bouygues E&S,Ecocharge77,2.756482,48.486507
432.0,120.0,FRPD1PIBIDUN,Power Dot France,Power Dot France,2.310785,51.007101
36.0,18.0,FRS77E77445001,Bouygues E&S,Ecocharge77,2.582113,48.596577
547.0,187.5,FRPD1PMATSMX,Power Dot France,Power Dot France,6.213592,48.701169
36.0,18.0,FRS77E77432001,Bouygues E&S,Ecocharge77,3.232304,48.792183
394.0,100.0,FRPD1PITMLPB,Power Dot France,Power Dot France,5.684441,45.5298
122.0,50.0,FRPD1PBRCLLB,Power Dot France,Power Dot France,6.363123,47.809822
472.0,100.0,FRPD1PITMTRE,Power Dot France,Power Dot France,-2.852549,48.523563
672.0,200.0,FRPD1PCHAHIR,Power Dot France,Power Dot France,4.091023,49.910018
7000.0,250.0,FRTSLP27742,Tesla,Tesla,47.0432,47.0432
632.0,200.0,FRPD1PMATSAM,Power Dot France,Power Dot France,3.429659,50.453807
672.0,200.0,FRPD1PSOGCOR,Power Dot France,Power Dot France,4.058185,49.216116
822.0,100.0,FRPD1PAUCVIL,Power Dot France,Power Dot France,2.52567,49.85708
192.0,120.0,FRPD1PLBCTRB,Power Dot France,Power Dot France,0.039376,43.238914
132.0,60.0,FRPD1PITMDIZ,Power Dot France,Power Dot France,6.721891,48.818517
1200.0,150.0,FRTSLP2622,Tesla,Tesla,46.137123,46.137123
462.0,100.0,FRPD1PITMAGE,Power Dot France,Power Dot France,0.618914,44.182611
36.0,18.0,FRS77E77229001,Bouygues E&S,Ecocharge77,2.874503,48.75351
222.0,100.0,FRPD1PMBCCHP,Power Dot France,Power Dot France,4.927858,45.651324
244.0,50.0,FRPD1PITMRON,Power Dot France,Power Dot France,1.081556,49.421463
36.0,18.0,FRS77E77131002,Bouygues E&S,Ecocharge77,3.0823624,48.815077
394.0,100.0,FRPD1PIBSSMA,Power Dot France,Power Dot France,-1.989949,48.625624
632.0,200.0,FRPD1PMATCMO,Power Dot France,Power Dot France,5.589866,48.759298
1500.0,150.0,FRTSLP5671,Tesla,Tesla,43.423964,43.423964
572.0,100.0,FRPD1PIBSISR,Power Dot France,Power Dot France,3.270861,45.551668
36.0,18.0,FRS77E77187001,Bouygues E&S,Ecocharge77,3.39162,48.41394
672.17025,200.0,FRPD1PRTPFLR,Power Dot France,Power Dot France,-0.577051,48.733926
372.0,100.0,FRPD1PSYULMD,Power Dot France,Power Dot France,6.380346,49.020206
672.17025,200.0,FRPD1PSYUMRV,Power Dot France,Power Dot France,2.653244,50.64073
432.0,120.0,FRPD1PJARSLO,Power Dot France,Power Dot France,-1.079832,49.099054
132.0,60.0,FRPD1PITMSML,Power Dot France,Power Dot France,-0.18379,43.26457
472.0,120.0,FRPD1PZOCPZN,Power Dot France,Power Dot France,3.418791,43.452592
1297.0,187.5,FRPD1PITMGRT,Power Dot France,Power Dot France,1.418643,43.714179
4500.0,250.0,FRTSLP3017,Tesla,Tesla,43.511478,43.511478
262.0,120.0,FRPD1PKCOUNI,Power Dot France,Power Dot France,4.268084,45.392928
632.0,200.0,FRPD1PBRIRIO,Power Dot France,Power Dot France,3.118431,45.87855
46.0,24.0,FRS77E77431002,Bouygues E&S,Ecocharge77,2.68569018,48.265784
4000.0,250.0,FRTSLP30032,Tesla,Tesla,48.444752,48.444752
244.0,100.0,FRPD1PGENBAY,Power Dot France,Power Dot France,-1.495944,43.464923
36.0,18.0,FRS77E77508001,Bouygues E&S,Ecocharge77,2.830368,48.813721
502.0,120.0,FRPD1PMRBVIR,Power Dot France,Power Dot France,4.724065,50.075797
872.0,100.0,FRPD1PCORSMX,Power Dot France,Power Dot France,2.468878,49.236297
372.0,100.0,FRPD1PSQEMTB,Power Dot France,Power Dot France,1.373528,44.037791
132.0,60.0,FRPD1PITMCMC,Power Dot France,Power Dot France,5.585097,48.75545
5000.0,250.0,FRTSLP28456,Tesla,Tesla,46.129425,46.129425
394.0,120.0,FRPD1PBOUGAU,Power Dot France,Power Dot France,3.295866,49.819015
872.0,100.0,FRPD1PCORSQE,Power Dot France,Power Dot France,3.291135,49.865962
672.0,200.0,FRPD1PITMPSC,Power Dot France,Power Dot France,1.186651,44.501599
672.0,200.0,FRPD1PSYUSMM,Power Dot France,Power Dot France,0.351132,45.041399
654.0,200.0,FRPD1PBUTMED,Power Dot France,Power Dot France,3.475958,44.514602
769.0,187.5,FRPD1PITMPMN,Power Dot France,Power Dot France,6.888186,43.644633
36.0,18.0,FRS77E77311001,Bouygues E&S,Ecocharge77,3.060808,48.452545
522.0,150.0,FRPD1PWLDSTC,Power Dot France,Power Dot France,5.457146,45.568571
572.0,100.0,FRPD1PIBSPRT,Power Dot France,Power Dot France,5.496703,43.676021
672.0,200.0,FRPD1PKRDTNC,Power Dot France,Power Dot France,-2.205963,47.296938
122.0,50.0,FRPD1PITMMLV,Power Dot France,Power Dot France,-3.226295,47.737009
44.0,22.0,FRPD1PIBSSLS,Power Dot France,Power Dot France,2.606293,49.208304
5000.0,250.0,FRTSLP33831,Tesla,Tesla,50.73346,50.73346
36.0,18.0,FRS77E77005001,Bouygues E&S,Ecocharge77,2.718575,48.924843
569.0,187.5,FRPD1PIBSPRP,Power Dot France,Power Dot France,2.85271,42.680874
454.0,120.0,FRPD1PBUFSAR,Power Dot France,Power Dot France,1.892843,47.944241
1200.0,150.0,FRTSLP1758,Tesla,Tesla,43.815312,43.815312
132.0,60.0,FRPD1PSYUAMS,Power Dot France,Power Dot France,2.26945,49.89905
40.0,22.0,FRS77E77447001,Bouygues E&S,Ecocharge77,2.549188,48.557755
432.0,120.0,FRPD1PACTSVG,Power Dot France,Power Dot France,2.59274,48.584846
572.0,100.0,FRPD1PCRFMBA,Power Dot France,Power Dot France,0.816615,49.356578
1200.0,150.0,FRTSLP1735,Tesla,Tesla,46.862938,46.862938
36.0,18.0,FRS77E77095001,Bouygues E&S,Ecocharge77,2.760311,48.971008
502.0,120.0,FRPD1PSTRWIT,Power Dot France,Power Dot France,7.311771,47.798373
632.0,200.0,FRPD1PMATCEU,Power Dot France,Power Dot France,5.605446,48.759877
294.0,100.0,FRPD1PSYSSAI,Power Dot France,Power Dot France,4.03491,48.262356
998.17025,188.0,FRPD1PINVBRV,Power Dot France,Power Dot France,1.545203,45.167233
1850.0,200.0,FRPD1PCORMOU,Power Dot France,Power Dot France,6.109586,49.08401
122.0,50.0,FRPD1PITMILB,Power Dot France,Power Dot France,1.45902,48.882031
272.0,100.0,FRPD1PGSTLPM,Power Dot France,Power Dot France,5.352426,43.415153
412.0,120.0,FRPD1PSYUMTM,Power Dot France,Power Dot France,6.156316,49.087975
772.0,100.0,FRPD1PCORDRX,Power Dot France,Power Dot France,1.346525,48.749219
632.0,200.0,FRPD1PIBSCLS,Power Dot France,Power Dot France,1.879468,50.946896
572.0,100.0,FRPD1PSYUSPL,Power Dot France,Power Dot France,-3.986666,48.687893
936.0,100.0,FRPD1PCORVSM,Power Dot France,Power Dot France,4.75294,49.734045
548.0,188.0,FRPD1PMBRPSE,Power Dot France,Power Dot France,4.639736,44.240638
244.0,50.0,FRPD1PSYUSMH,Power Dot France,Power Dot France,4.903246,49.090661
36.0,18.0,FRS77E77389001,Bouygues E&S,Ecocharge77,2.660926,48.521801
1500.0,150.0,FRTSLP1724,Tesla,Tesla,47.048516,47.048516
632.0,200.0,FRPD1PNETSST,Power Dot France,Power Dot France,-1.322,43.74703
36.0,18.0,FRS77E77033001,Bouygues E&S,Ecocharge77,3.24285,48.678036
2000.0,250.0,FRTSLP30256,Tesla,Tesla,44.569565,44.569565
572.0,100.0,FRPD1PBTHTRS,Power Dot France,Power Dot France,0.699904,47.424842
244.0,50.0,FRPD1PGSTSOR,Power Dot France,Power Dot France,4.884035,43.984533
4000.0,250.0,FRTSLP16979,Tesla,Tesla,43.647712,43.647712
544.0,150.0,FRPD1PSYULUB,Power Dot France,Power Dot France,1.396961,45.436744
672.0,200.0,FRPD1PIBSSLO,Power Dot France,Power Dot France,-1.082424,49.098949
444.0,100.0,FRPD1PIBSLBN,Power Dot France,Power Dot France,-0.243718,44.947021
46.0,24.0,FRS77E77404001,Bouygues E&S,Ecocharge77,3.253609,48.529092
662.0,160.0,FRPD1PBRCLVR,Power Dot France,Power Dot France,1.802318,43.706921
36.0,18.0,FRS77E77249001,Bouygues E&S,Ecocharge77,2.6151806,48.7471803
822.0,200.0,FRPD1PACTANM,Power Dot France,Power Dot France,6.262222,46.196633
1047.0,187.5,FRPD1PCORGLG,Power Dot France,Power Dot France,2.418161,48.97489
122.0,50.0,FRPD1PITMCSD,Power Dot France,Power Dot France,1.535962,44.15921
4000.0,250.0,FRTSLP29561,Tesla,Tesla,50.629871,50.629871
194.0,100.0,FRPD1PCRFTRN,Power Dot France,Power Dot France,0.240153,43.176299
744.0,100.0,FRPD1PCORALE,Power Dot France,Power Dot France,4.096083,44.112756
632.0,200.0,FRPD1PITMBEB,Power Dot France,Power Dot France,5.228749,46.195546
122.0,50.0,FRPD1PIBSGAP,Power Dot France,Power Dot France,6.08449,44.559437
1500.0,150.0,FRTSLP5362,Tesla,Tesla,48.349478,48.349478
4000.0,250.0,FRTSLP16734,Tesla,Tesla,47.272073,47.272073
44.0,22.0,FRS77E77288007,Bouygues E&S,Ecocharge77,2.6788576,48.543662
712.0,160.0,FRPD1PHF1SPR,Power Dot France,Power Dot France,4.912867,45.70533
142.0,60.0,FRPD1PITMPLR,Power Dot France,Power Dot France,-2.870134,47.658868
922.0,100.0,FRPD1PCORELN,Power Dot France,Power Dot France,6.243726,48.705186
36.0,18.0,FRS77E77309001,Bouygues E&S,Ecocharge77,2.828918,49.00922
36.0,18.0,FRS77E77486001,Bouygues E&S,Ecocharge77,3.080205,48.688385
1000.0,250.0,FRTSLP29651,Tesla,Tesla,42.594733,42.594733
772.0,100.0,FRPD1PITMINV,Power Dot France,Power Dot France,1.15354,49.500875
4000.0,250.0,FRTSLP12180,Tesla,Tesla,43.727823,43.727823
172.0,100.0,FRPD1PSYUSLG,Power Dot France,Power Dot France,5.956884,46.572
872.0,160.0,FRPD1PRODPRX,Power Dot France,Power Dot France,4.095957,46.029118
132.0,60.0,FRPD1PITMMTB,Power Dot France,Power Dot France,1.380719,44.021645
36.0,18.0,FRS77E77032001,Bouygues E&S,Ecocharge77,3.244617,48.702133
444.0,100.0,FRPD1PKFCCAL,Power Dot France,Power Dot France,1.83653,50.940988
1200.0,150.0,FRTSLP1763,Tesla,Tesla,48.081773,48.081773
444.0,100.0,FRPD1PKFCSTE,Power Dot France,Power Dot France,4.413714,45.455049
262.0,120.0,FRPD1PITMAUX,Power Dot France,Power Dot France,3.920786,48.109168
132.0,60.0,FRPD1PMBRTQS,Power Dot France,Power Dot France,0.093617,49.34989
632.0,200.0,FRPD1PZCESMR,Power Dot France,Power Dot France,5.040009,43.439636
36.0,18.0,FRS77E77534001,Bouygues E&S,Ecocharge77,2.773878,48.637527
172.0,100.0,FRPD1PCOHAUR,Power Dot France,Power Dot France,2.444307,44.911188
36.0,18.0,FRS77E77069001,Bouygues E&S,Ecocharge77,2.607938,48.465767
672.0,200.0,FRPD1PCAPMSL,Power Dot France,Power Dot France,1.671538,47.832807
122.0,50.0,FRPD1PGSTHBL,Power Dot France,Power Dot France,2.171626,49.006109
672.0,150.0,FRPD1PKYRCMF,Power Dot France,Power Dot France,3.142261,45.760573
3000.0,250.0,FRTSLP33154,Tesla,Tesla,47.466441,47.466441
6000.0,250.0,FRTSLP29984,Tesla,Tesla,50.410222,50.410222
90.0,24.0,FRS77E77431001,Bouygues E&S,Ecocharge77,2.67831429,48.2705034
432.0,120.0,FRPD1PJARGRA,Power Dot France,Power Dot France,-1.558453,48.837646
822.0,100.0,FRPD1PSYUEAN,Power Dot France,Power Dot France,1.372633,43.417938
500.0,125.0,FRTSLP1731,Tesla,Tesla,48.991682,48.991682
36.0,18.0,FRS77E77142001,Bouygues E&S,Ecocharge77,2.906715,48.858112
1097.0,187.5,FRPD1PCORBLF,Power Dot France,Power Dot France,6.861585,47.599504
366.0,50.0,FRPD1PIMCBSO,Power Dot France,Power Dot France,2.300525,48.58762
36.0,18.0,FRS77E77208001,Bouygues E&S,Ecocharge77,3.293563,48.482601
36.0,18.0,FRS77E77519001,Bouygues E&S,Ecocharge77,3.406241,48.649963
46.0,24.0,FRS77E77288003,Bouygues E&S,Ecocharge77,2.66173,48.53669
250.0,200.0,FRPD1PSUPBER,Power Dot France,Power Dot France,7.686604,48.747294
132.0,60.0,FRPD1PSYULFU,Power Dot France,Power Dot France,-4.169359,48.29842
132.0,60.0,FRPD1PMBRNSE,Power Dot France,Power Dot France,-1.477091,47.441411
572.0,100.0,FRPD1PSYUCTN,Power Dot France,Power Dot France,5.842167,48.299565
632.0,200.0,FRPD1PTDBLRB,Power Dot France,Power Dot France,-1.359503,47.244156
444.0,100.0,FRPD1PHOLGUI,Power Dot France,Power Dot France,-1.832646,47.821831
672.0,200.0,FRPD1PCHACHE,Power Dot France,Power Dot France,5.019132,47.282559
36.0,18.0,FRS77E77428001,Bouygues E&S,Ecocharge77,2.915421,48.558926
244.0,50.0,FRPD1PITMVCN,Power Dot France,Power Dot France,2.527828,48.709259
872.0,160.0,FRPD1PITMRPT,Power Dot France,Power Dot France,4.039173,48.264103
2000.0,250.0,FRTSLP30948,Tesla,Tesla,47.02484,47.02484
122.0,50.0,FRPD1PBOTBLZ,Power Dot France,Power Dot France,-3.181569,47.671717
324.0,120.0,FRPD1PSENCDA,Power Dot France,Power Dot France,3.176891,45.744763
922.0,100.0,FRPD1PCORAUX,Power Dot France,Power Dot France,3.55232,47.843038
36.0,18.0,FRS77E77469001,Bouygues E&S,Ecocharge77,3.011744,48.735561
6000.0,250.0,FRTSLP30259,Tesla,Tesla,43.33661,43.33661
1500.0,150.0,FRTSLP3019,Tesla,Tesla,44.543278,44.543278
44.0,22.0,FRPD1PNOVLSQ,Power Dot France,Power Dot France,3.088794,50.583993
222.0,100.0,FRPD1PITMQSY,Power Dot France,Power Dot France,-2.655926,48.422721
2000.0,250.0,FRTSLP45348,Tesla,Tesla,41.951923,41.951923
46.0,24.0,FRS77E77483002,Bouygues E&S,Ecocharge77,2.925855,49.004922
662.0,160.0,FRPD1PMBCBIA,Power Dot France,Power Dot France,0.667247,44.403267
1288.0,100.0,FRPD1PFONFLR,Power Dot France,Power Dot France,-0.373355,49.139824
2083.0,188.0,FRPD1PITMDAX,Power Dot France,Power Dot France,-1.049971,43.691341
2000.0,250.0,FRTSLP30234,Tesla,Tesla,49.60275,49.60275
122.0,50.0,FRPD1PITMTLV,Power Dot France,Power Dot France,1.292168,45.130644
572.0,100.0,FRPD1PBRCCSI,Power Dot France,Power Dot France,1.167372,46.986665
632.0,200.0,FRPD1PHLFHRC,Power Dot France,Power Dot France,6.773174,47.581877
4000.0,250.0,FRTSLP29155,Tesla,Tesla,48.430914,48.430914
632.0,200.0,FRPD1PACCSDR,Power Dot France,Power Dot France,1.064608,49.400203
544.0,100.0,FRPD1PESCUFC,Power Dot France,Power Dot France,2.60568,44.400582
632.0,200.0,FRPD1PMBRPTR,Power Dot France,Power Dot France,0.366346,46.566813
572.0,100.0,FRPD1PSYUMTR,Power Dot France,Power Dot France,1.533552,43.644814
490.0,120.0,FRPD1PEKSLPT,Power Dot France,Power Dot France,4.858426,43.974846
132.0,60.0,FRPD1PSYUSLA,Power Dot France,Power Dot France,4.191898,43.628977
572.0,100.0,FRPD1PSYUVAL,Power Dot France,Power Dot France,6.335597,47.149549
172.0,100.0,FRPD1PKRMMTC,Power Dot France,Power Dot France,1.243366,43.962245
4000.0,250.0,FRTSLP33175,Tesla,Tesla,45.870677,45.870677
1500.0,250.0,FRTSLP29983,Tesla,Tesla,44.3783,44.3783
44.0,22.0,FRS77E77389003,Bouygues E&S,Ecocharge77,2.662989,48.519701
272.0,100.0,FRPD1PGMVLDS,Power Dot France,Power Dot France,-0.03183,43.115423
122.0,50.0,FRPD1PITMMON,Power Dot France,Power Dot France,4.474909,46.738792
632.0,200.0,FRPD1PMBRSDV,Power Dot France,Power Dot France,6.937991,48.290646
1098.0,188.0,FRPD1PCORVSL,Power Dot France,Power Dot France,6.171672,47.626201
122.0,50.0,FRPD1PITMMTV,Power Dot France,Power Dot France,0.177396,49.539284
36.0,18.0,FRS77E77194001,Bouygues E&S,Ecocharge77,2.961401,48.418995
194.0,100.0,FRPD1PCCPCOL,Power Dot France,Power Dot France,7.383436,48.080467
772.0,100.0,FRPD1PMATOIG,Power Dot France,Power Dot France,2.997678,50.46994
572.0,100.0,FRPD1PBAOBTV,Power Dot France,Power Dot France,2.056126,48.456272
478.0,114.0,FRPD1PACCAGL,Power Dot France,Power Dot France,-1.100287,46.108097
264.0,60.0,FRPD1PCORAMP,Power Dot France,Power Dot France,6.524623,46.391318
200.0,100.0,FRPD1PBRCCSC,Power Dot France,Power Dot France,0.846288,45.70771
244.0,50.0,FRPD1PGSTBEV,Power Dot France,Power Dot France,2.115794,49.412959
36.0,18.0,FRS77E77398001,Bouygues E&S,Ecocharge77,3.29573,48.875221
394.0,100.0,FRPD1PITMMTJ,Power Dot France,Power Dot France,0.598489,42.808433
600.0,100.0,FRPD1PMATBIS,Power Dot France,Power Dot France,7.765818,48.612377
5000.0,250.0,FRTSLP5147,Tesla,Tesla,48.754865,48.754865
262.0,120.0,FRPD1PCRFMMZ,Power Dot France,Power Dot France,-1.228543,44.193305
288.0,50.0,FRPD1PSYURLB,Power Dot France,Power Dot France,7.284137,49.047407
738.17025,200.0,FRPD1PITMPLG,Power Dot France,Power Dot France,-2.44221,47.273084
2409.0,187.5,FRPD1PPATIDA,Power Dot France,Power Dot France,5.224693,45.616411
632.0,200.0,FRPD1PITMPAM,Power Dot France,Power Dot France,6.058042,48.920845
36.0,18.0,FRS77E77238001,Bouygues E&S,Ecocharge77,3.123814,48.92767
3000.0,250.0,FRTSLP2584,Tesla,Tesla,44.22596,44.22596
222.0,100.0,FRPD1PBRTLOS,Power Dot France,Power Dot France,-0.415631,43.313299
444.0,100.0,FRPD1PITMGRD,Power Dot France,Power Dot France,-2.407862,47.303633
1032.0,180.0,FRPD1PCORTOL,Power Dot France,Power Dot France,5.887007,48.663611
36.0,18.0,FRS77E77142002,Bouygues E&S,Ecocharge77,2.909066,48.857899
3642.0,300.0,FRPD1PELCMTB,Power Dot France,Power Dot France,1.355941,44.004763
632.0,200.0,FRPD1PSYUSRB,Power Dot France,Power Dot France,7.026528,48.985126
4000.0,250.0,FRTSLP29982,Tesla,Tesla,48.65331,48.65331
6000.0,250.0,FRTSLP26558,Tesla,Tesla,43.414915,43.414915
592.0,180.0,FRPD1PDTYBGC,Power Dot France,Power Dot France,0.478513,44.834931
122.0,50.0,FRPD1PACNHGN,Power Dot France,Power Dot France,7.78445,48.818927
432.0,120.0,FRPD1PMBCBLC,Power Dot France,Power Dot France,1.053293,46.128899
644.0,100.0,FRPD1PCORSAR,Power Dot France,Power Dot France,7.093418,49.116825
44.0,22.0,FRS77E77053002,Bouygues E&S,Ecocharge77,2.614377,48.697565
272.0,100.0,FRPD1PGMVGAN,Power Dot France,Power Dot France,-0.399894,43.21977
672.0,200.0,FRPD1PMBRTHO,Power Dot France,Power Dot France,-0.197892,46.977049
1200.0,150.0,FRTSLP5432,Tesla,Tesla,49.737046,49.737046
572.0,200.0,FRPD1PMATMAD,Power Dot France,Power Dot France,3.074011,50.658144
46.0,24.0,FRS77E77156001,Bouygues E&S,Ecocharge77,2.73537311,48.2708816
394.0,100.0,FRPD1PSYUREI,Power Dot France,Power Dot France,4.085606,49.239995
1462.0,180.0,FRPD1PITMPSE,Power Dot France,Power Dot France,1.397205,49.00994
922.0,100.0,FRPD1PCORSMC,Power Dot France,Power Dot France,5.993398,49.197057
36.0,18.0,FRS77E77214001,Bouygues E&S,Ecocharge77,2.671611,48.965435
392.0,160.0,FRPD1PHOTCLS,Power Dot France,Power Dot France,1.837956,50.943912
1225.0,187.5,FRPD1PMRBALS,Power Dot France,Power Dot France,4.105347,44.133891
44.0,22.0,FRS77E77288002,Bouygues E&S,Ecocharge77,2.6534923,48.5263359
632.0,200.0,FRPD1PETXORL,Power Dot France,Power Dot France,1.911527,47.874699
1097.0,187.5,FRPD1PCORDRC,Power Dot France,Power Dot France,7.292158,47.740252
3000.0,250.0,FRTSLP33162,Tesla,Tesla,45.306378,45.306378
412.0,120.0,FRPD1PIBSQPR,Power Dot France,Power Dot France,-4.033201,47.979369
122.0,50.0,FRPD1PMBRCER,Power Dot France,Power Dot France,2.759275,42.501187
122.0,50.0,FRPD1PSKTLNN,Power Dot France,Power Dot France,-3.443907,48.733804
672.0,200.0,FRPD1PMONCHA,Power Dot France,Power Dot France,-1.049519,46.681569
512.0,120.0,FRPD1PIBSRDN,Power Dot France,Power Dot France,-2.064361,47.674174
572.0,100.0,FRPD1PITMISM,Power Dot France,Power Dot France,-1.098424,49.313098
547.0,187.5,FRPD1PMATNEU,Power Dot France,Power Dot France,5.692422,48.352668
262.0,120.0,FRPD1PLCBSTH,Power Dot France,Power Dot France,-1.640162,47.230244
36.0,18.0,FRS77E77070001,Bouygues E&S,Ecocharge77,3.124815,48.79105
672.0,200.0,FRPD1PBDMGRO,Power Dot France,Power Dot France,2.359229,48.98494
462.0,110.0,FRPD1PACCLMG,Power Dot France,Power Dot France,1.291012,45.888248
2000.0,250.0,FRTSLP29581,Tesla,Tesla,48.57439,48.57439
659.5,187.5,FRPD1PMATJAR,Power Dot France,Power Dot France,5.863113,49.166006
46.0,24.0,FRS77E77192001,Bouygues E&S,Ecocharge77,2.866713,48.706941
3000.0,250.0,FRTSLP30148,Tesla,Tesla,50.521625,50.521625
140.0,24.0,FRPD1PNOVBGL,Power Dot France,Power Dot France,2.416179,48.86333
3000.0,250.0,FRTSLP33179,Tesla,Tesla,49.200795,49.200795
350.0,24.0,FRPD1PVLYNCE,Power Dot France,Power Dot France,7.194802,43.704363
262.0,120.0,FRPD1PBUFSAI,Power Dot France,Power Dot France,4.966096,48.626646
672.0,200.0,FRPD1PDEGPSG,Power Dot France,Power Dot France,1.400234,43.534993
176.0,60.0,FRPD1PSYUMBR,Power Dot France,Power Dot France,7.329183,48.998371
172.0,100.0,FRPD1PSGLLDS,Power Dot France,Power Dot France,5.597787,43.38957
512.0,120.0,FRPD1PSPUREZ,Power Dot France,Power Dot France,-1.558997,47.177433
36.0,18.0,FRS77E77348001,Bouygues E&S,Ecocharge77,2.654417,48.243546
444.0,100.0,FRPD1PCORFOR,Power Dot France,Power Dot France,6.88303,49.174366
1200.0,150.0,FRTSLP1772,Tesla,Tesla,44.91912,44.91912
2000.0,250.0,FRTSLP7322,Tesla,Tesla,45.152098,45.152098
872.0,160.0,FRPD1PKFCNSM,Power Dot France,Power Dot France,2.520786,48.854187
122.0,50.0,FRPD1PITMILC,Power Dot France,Power Dot France,1.256011,48.304153
122.0,50.0,FRPD1PBRCBTC,Power Dot France,Power Dot France,7.425398,49.044085
952.17025,200.0,FRPD1PCAPSJB,Power Dot France,Power Dot France,1.98868,47.922826
172.0,100.0,FRPD1PSPRFTU,Power Dot France,Power Dot France,2.993399,42.894942
502.0,120.0,FRPD1PCFMHTN,Power Dot France,Power Dot France,-1.054281,45.186992
92.0,24.0,FRS77E77022002,Bouygues E&S,Ecocharge77,2.603382,48.44495
36.0,18.0,FRS77E77252001,Bouygues E&S,Ecocharge77,2.66521,48.62632
36.0,18.0,FRS77E77285001,Bouygues E&S,Ecocharge77,2.64036,48.542576
632.0,200.0,FRPD1PMATLUR,Power Dot France,Power Dot France,6.501788,47.678885
792.0,200.0,FRPD1PCHASAU,Power Dot France,Power Dot France,-0.063598,47.277921
694.0,150.0,FRPD1PNOVMPL,Power Dot France,Power Dot France,3.892475,43.58972
572.0,100.0,FRPD1PJAREVR,Power Dot France,Power Dot France,1.193197,49.015003
46.0,24.0,FRS77E77306001,Bouygues E&S,Ecocharge77,2.669444,48.592321
36.0,18.0,FRS77E77512001,Bouygues E&S,Ecocharge77,3.343021,48.861053
222.0,100.0,FRPD1PKFCNIM,Power Dot France,Power Dot France,4.349809,43.819103
3000.0,250.0,FRTSLP30246,Tesla,Tesla,48.093079,48.093079
1172.0,175.0,FRPD1PCORAVD,Power Dot France,Power Dot France,6.694049,49.111423
36.0,18.0,FRS77E77103001,Bouygues E&S,Ecocharge77,2.835017,48.529648
1097.0,187.5,FRPD1PSYUBTD,Power Dot France,Power Dot France,7.320834,47.726826
216.0,50.0,FRPD1PITMLSL,Power Dot France,Power Dot France,1.396225,43.454631
2000.0,250.0,FRTSLP29575,Tesla,Tesla,48.20083,48.20083
632.0,200.0,FRPD1PACCPPN,Power Dot France,Power Dot France,2.863807,42.685264
210.0,50.0,FRPD1PCORRNS,Power Dot France,Power Dot France,-1.767912,48.137314
44.0,22.0,FRS77E77389002,Bouygues E&S,Ecocharge77,2.655785,48.517753
3000.0,250.0,FRTSLP16456,Tesla,Tesla,47.499063,47.499063
524.0,120.0,FRPD1PITMLCL,Power Dot France,Power Dot France,-1.957678,47.362095
44.0,22.0,FRS77E77284004,Bouygues E&S,Ecocharge77,2.882553,48.967475
36.0,18.0,FRS77E77212001,Bouygues E&S,Ecocharge77,3.120485,48.398468
36.0,18.0,FRS77E77437001,Bouygues E&S,Ecocharge77,2.806383,49.039307
502.0,120.0,FRPD1PIBIAUR,Power Dot France,Power Dot France,-3.013352,47.662737
632.0,200.0,FRPD1PMATLQN,Power Dot France,Power Dot France,3.636118,50.249569
672.0,200.0,FRPD1PRTPAMB,Power Dot France,Power Dot France,1.015289,47.416967
672.0,200.0,FRPD1PSTOANG,Power Dot France,Power Dot France,-0.594141,47.466318
36.0,18.0,FRS77E77047001,Bouygues E&S,Ecocharge77,2.906949,48.882027
689.0,187.5,FRPD1PITMSMA,Power Dot France,Power Dot France,-1.997066,48.648777
732.0,180.0,FRPD1PCTKLAG,Power Dot France,Power Dot France,0.61759,48.764766
947.0,187.5,FRPD1PBOULIM,Power Dot France,Power Dot France,1.275304,45.805902
512.0,120.0,FRPD1PNTOBGR,Power Dot France,Power Dot France,-3.296041,48.621686
672.0,200.0,FRPD1PMBRBRE,Power Dot France,Power Dot France,-0.481346,46.832953
502.0,120.0,FRPD1PSPOSSD,Power Dot France,Power Dot France,-0.872116,46.226836
1072.0,150.0,FRPD1PCORCOU,Power Dot France,Power Dot France,2.944943,50.444741
672.0,200.0,FRPD1PSOMTLS,Power Dot France,Power Dot France,1.39683,43.613736
36.0,18.0,FRS77E77257001,Bouygues E&S,Ecocharge77,3.026891,49.025196
4000.0,250.0,FRTSLP16732,Tesla,Tesla,47.61295,47.61295
672.0,200.0,FRPD1PFLTBRG,Power Dot France,Power Dot France,2.370355,47.065916
36.0,18.0,FRS77E77282001,Bouygues E&S,Ecocharge77,2.581679,49.03389
294.0,100.0,FRPD1PZCFFMN,Power Dot France,Power Dot France,4.298296,45.390094
122.0,50.0,FRPD1PIBSDRX,Power Dot France,Power Dot France,1.36828,48.73089
872.0,160.0,FRPD1PRTPVIR,Power Dot France,Power Dot France,-0.87713,48.857369
632.0,200.0,FRPD1PITMMSB,Power Dot France,Power Dot France,5.309821,47.392844
44.0,22.0,FRPD1PKYRBEL,Power Dot France,Power Dot France,6.85706,47.628829
632.0,200.0,FRPD1PACTBER,Power Dot France,Power Dot France,0.451459,44.834772
1200.0,150.0,FRTSLP1774,Tesla,Tesla,45.586749,45.586749
44.0,22.0,FRPD1PBSWBLF,Power Dot France,Power Dot France,6.854427,47.633562
44.0,22.0,FRPD1PIBSMCN,Power Dot France,Power Dot France,4.82709,46.30356
122.0,50.0,FRPD1PCACSDS,Power Dot France,Power Dot France,0.961402,43.101934
244.0,50.0,FRPD1PCCALFL,Power Dot France,Power Dot France,4.344909,45.483403
1200.0,150.0,FRTSLP1767,Tesla,Tesla,45.74935,45.74935
272.0,100.0,FRPD1PMBRMOR,Power Dot France,Power Dot France,-0.950743,46.990728
432.0,120.0,FRPD1PBBFCOR,Power Dot France,Power Dot France,1.306337,43.660538
36.0,18.0,FRS77E77433001,Bouygues E&S,Ecocharge77,3.048279,48.758305
6500.0,250.0,FRTSLP34046,Tesla,Tesla,49.203953,49.203953
314.0,120.0,FRPD1PITMAFM,Power Dot France,Power Dot France,-1.411137,47.082818
44.0,22.0,FRPD1PMBRCSL,Power Dot France,Power Dot France,-0.761531,47.346497
672.0,200.0,FRPD1PITMARZ,Power Dot France,Power Dot France,-2.895545,47.546267
900.0,150.0,FRTSLP1749,Tesla,Tesla,45.69848,45.69848
36.0,18.0,FRS77E77191001,Bouygues E&S,Ecocharge77,2.951969,48.555733
36.0,18.0,FRS77E77116001,Bouygues E&S,Ecocharge77,3.219879,48.758823
36.0,18.0,FRS77E77227001,Bouygues E&S,Ecocharge77,3.349335,48.483391
748.0,188.0,FRPD1PMBRLLB,Power Dot France,Power Dot France,0.530555,49.521873
294.0,100.0,FRPD1PITMRBM,Power Dot France,Power Dot France,3.46585,49.801223
407.36,100.0,FRPD1PSYUSPT,Power Dot France,Power Dot France,3.488322,50.190512
892.17025,100.0,FRPD1PETXTHV,Power Dot France,Power Dot France,6.139362,49.357952
36.0,18.0,FRS77E77365001,Bouygues E&S,Ecocharge77,3.033389,48.713238
122.0,50.0,FRPD1PSCIMLM,Power Dot France,Power Dot France,1.555375,45.168752
502.0,120.0,FRPD1PBBFPRI,Power Dot France,Power Dot France,2.56819,48.520627
3000.0,250.0,FRTSLP29624,Tesla,Tesla,47.677358,47.677358
122.0,50.0,FRPD1PBCHPRN,Power Dot France,Power Dot France,2.253624,49.144543
122.0,50.0,FRPD1PSCIOBG,Power Dot France,Power Dot France,1.495654,45.149778
432.0,120.0,FRPD1PLPVCHO,Power Dot France,Power Dot France,-0.852299,47.069186
432.0,120.0,FRPD1PJARCOU,Power Dot France,Power Dot France,-1.428591,49.06997
172.0,100.0,FRPD1PSCICBG,Power Dot France,Power Dot France,1.48104,45.149153
572.0,100.0,FRPD1PJARDAD,Power Dot France,Power Dot France,2.255017,48.161991
1247.0,187.5,FRPD1PSYUMGR,Power Dot France,Power Dot France,2.458553,48.703188
272.0,100.0,FRPD1PLBCSJV,Power Dot France,Power Dot France,3.838774,43.568288
512.0,120.0,FRPD1PNETTOE,Power Dot France,Power Dot France,2.97839,42.605168
672.0,200.0,FRPD1PSOMDAN,Power Dot France,Power Dot France,6.861083,47.616818
36.0,18.0,FRS77E77302001,Bouygues E&S,Ecocharge77,2.69995,48.30003
1384.5,187.5,FRPD1PRPAAIG,Power Dot France,Power Dot France,0.645287,48.759955
588.0,100.0,FRPD1PMRCMEB,Power Dot France,Power Dot France,3.109816,50.679108
672.0,200.0,FRPD1PSYUPVG,Power Dot France,Power Dot France,-3.004327,47.772905
5000.0,250.0,FRTSLP17346,Tesla,Tesla,45.327236,45.327236
350.0,120.0,FRPD1PCINCON,Power Dot France,Power Dot France,-3.909477,47.898808
4000.0,250.0,FRTSLP9507,Tesla,Tesla,48.783822,48.783822
772.0,100.0,FRPD1PBOUEPN,Power Dot France,Power Dot France,6.476966,48.201706
502.0,120.0,FRPD1PPATLAN,Power Dot France,Power Dot France,-0.242827,44.544381
5000.0,250.0,FRTSLP28781,Tesla,Tesla,45.75317,45.75317
44.0,22.0,FRS77E77278001,Bouygues E&S,Ecocharge77,3.163473,48.7766
5000.0,250.0,FRTSLP16321,Tesla,Tesla,47.502319,47.502319
36.0,18.0,FRS77E77276001,Bouygues E&S,Ecocharge77,2.859685,48.926731
36.0,18.0,FRS77E77269001,Bouygues E&S,Ecocharge77,2.700226,48.548374
222.0,100.0,FRPD1PMBRART,Power Dot France,Power Dot France,2.871266,50.681994
36.0,18.0,FRS77E77159001,Bouygues E&S,Ecocharge77,3.139536,48.476547
36.0,18.0,FRS77E77322001,Bouygues E&S,Ecocharge77,2.603089,49.064533
90.0,24.0,FRS77E77060001,Bouygues E&S,Ecocharge77,2.430137,48.28693
264.0,60.0,FRPD1PPCLMSC,Power Dot France,Power Dot France,1.118748,44.119175
36.0,18.0,FRS77E77339001,Bouygues E&S,Ecocharge77,2.496094,48.373798
344.0,100.0,FRPD1PSYUCVG,Power Dot France,Power Dot France,6.410293,48.262011
2000.0,250.0,FRTSLP33157,Tesla,Tesla,43.664461,43.664461
46.0,24.0,FRS77E77288001,Bouygues E&S,Ecocharge77,2.660073044713312,48.539630187088285
672.0,200.0,FRPD1PMATMRG,Power Dot France,Power Dot France,6.645092,48.924487
502.0,120.0,FRPD1PCNVVSS,Power Dot France,Power Dot France,-1.626484,48.064827
58.0,22.0,FRS77E77173001,Bouygues E&S,Ecocharge77,2.9343931093918036,49.03183264226434
372.0,100.0,FRPD1PNETBZL,Power Dot France,Power Dot France,1.366692,43.668904
36.0,18.0,FRS77E77135001,Bouygues E&S,Ecocharge77,2.960665,48.647747
44.0,22.0,FRS77E77404002,Bouygues E&S,Ecocharge77,3.256269,48.529948
572.0,100.0,FRPD1PLDBVLN,Power Dot France,Power Dot France,6.184075,48.653672
632.0,200.0,FRPD1PNVLPPN,Power Dot France,Power Dot France,2.900965,42.782198
2250.0,250.0,FRTSLP33161,Tesla,Tesla,44.903824,44.903824
44.0,22.0,FRS77E77288008,Bouygues E&S,Ecocharge77,2.6541588,48.549869
1800.0,150.0,FRTSLP1757,Tesla,Tesla,43.168105,43.168105
272.0,100.0,FRPD1PSYUNIE,Power Dot France,Power Dot France,1.169225,45.920147
1275.5,187.5,FRPD1PTRNORG,Power Dot France,Power Dot France,4.851989,44.109519
588.0,188.0,FRPD1PBDMDR1,Power Dot France,Power Dot France,1.362238,48.74733
272.0,100.0,FRPD1PIBSMEB,Power Dot France,Power Dot France,3.116216,50.675755
36.0,18.0,FRS77E77019001,Bouygues E&S,Ecocharge77,3.146731,48.398796
672.0,200.0,FRPD1PMBCSJU,Power Dot France,Power Dot France,0.919411,45.896826
847.0,187.5,FRPD1PITMFRT,Power Dot France,Power Dot France,1.392134,43.830201
36.0,18.0,FRS77E77360001,Bouygues E&S,Ecocharge77,2.984761,48.734184
262.0,120.0,FRPD1PMBRLHA,Power Dot France,Power Dot France,-0.500068,47.679897
36.0,18.0,FRS77E77384001,Bouygues E&S,Ecocharge77,2.62365,48.610615
394.0,100.0,FRPD1PKFCOTR,Power Dot France,Power Dot France,1.608312,50.699705
132.0,60.0,FRPD1PSYUMAR,Power Dot France,Power Dot France,0.182334,44.504507
472.0,100.0,FRPD1PIBSLCD,Power Dot France,Power Dot France,1.514001,48.427155
122.0,50.0,FRPD1PITMSTA,Power Dot France,Power Dot France,2.977054,42.552495
672.0,200.0,FRPD1PCHAEVR,Power Dot France,Power Dot France,1.171403,49.011149
672.0,150.0,FRPD1PSYUMAE,Power Dot France,Power Dot France,-1.386089,48.41531
632.0,200.0,FRPD1PIBSCOU,Power Dot France,Power Dot France,-1.671795,47.243277
930.0,200.0,FRPD1PIBSVSS,Power Dot France,Power Dot France,4.73835,45.976565
322.0,100.0,FRPD1PKFCPRP,Power Dot France,Power Dot France,2.893063,42.681158
772.0,100.0,FRPD1PIMCCMF,Power Dot France,Power Dot France,3.147596,45.75827
36.0,18.0,FRS77E77025001,Bouygues E&S,Ecocharge77,3.188327,48.398651
44.0,22.0,FRPD1PSYUSDH,Power Dot France,Power Dot France,2.128686,47.871511
547.0,187.5,FRPD1PMATRMV,Power Dot France,Power Dot France,6.636644,48.341103
466.0,100.0,FRPD1PCORVRD,Power Dot France,Power Dot France,5.408307,49.142742
1000.0,250.0,FRTSLP34057,Tesla,Tesla,49.905369,49.905369
632.17025,200.0,FRPD1PMATTHN,Power Dot France,Power Dot France,7.105823,47.807926
632.0,200.0,FRPD1PACTSTA,Power Dot France,Power Dot France,2.035364,50.363375
1019.0,187.5,FRPD1PSYUIST,Power Dot France,Power Dot France,2.634612,42.675666
5000.0,250.0,FRTSLP29384,Tesla,Tesla,50.74221,50.74221
632.0,200.0,FRPD1PPVCDTS,Power Dot France,Power Dot France,5.602138,43.383751
672.0,200.0,FRPD1PFONCST,Power Dot France,Power Dot France,4.097973,48.304678
36.0,18.0,FRS77E77100002,Bouygues E&S,Ecocharge77,2.800076,48.509586
756.0,80.0,FRPD1PCORCOL,Power Dot France,Power Dot France,7.369938,48.127866
922.0,150.0,FRPD1PMBRACH,Power Dot France,Power Dot France,0.594425,43.667238
36.0,18.0,FRS77E77126001,Bouygues E&S,Ecocharge77,2.974578,49.006927
632.0,200.0,FRPD1PMDMPMR,Power Dot France,Power Dot France,1.624334,43.099439
4000.0,250.0,FRTSLP10696,Tesla,Tesla,46.88961,46.88961
122.0,50.0,FRPD1PITMFMT,Power Dot France,Power Dot France,2.983755,48.797935
222.0,100.0,FRPD1PMBRLDA,Power Dot France,Power Dot France,2.943127,42.547755
274.0,60.0,FRPD1PITMBBC,Power Dot France,Power Dot France,0.474446,49.57966
36.0,18.0,FRS77E77144001,Bouygues E&S,Ecocharge77,2.90766,48.75396
2000.0,250.0,FRTSLP34049,Tesla,Tesla,45.553179,45.553179
46.0,24.0,FRS77E77127001,Bouygues E&S,Ecocharge77,2.697092,48.668724
36.0,18.0,FRS77E77053004,Bouygues E&S,Ecocharge77,2.609214,48.69102
36.0,18.0,FRS77E77451001,Bouygues E&S,Ecocharge77,3.068419,48.92791
36.0,18.0,FRS77E77284001,Bouygues E&S,Ecocharge77,2.902139,48.943699
36.0,18.0,FRS77E77528001,Bouygues E&S,Ecocharge77,2.664648,48.571087
36.0,18.0,FRS77E77131001,Bouygues E&S,Ecocharge77,3.085838,48.81382
1384.5,187.5,FRPD1PITMMTC,Power Dot France,Power Dot France,1.246788,43.964628
288.0,50.0,FRPD1PCORVYR,Power Dot France,Power Dot France,2.53516,48.683303
432.0,120.0,FRPD1PBBFBET,Power Dot France,Power Dot France,4.959169,48.649863
632.0,200.0,FRPD1PITMPDC,Power Dot France,Power Dot France,3.242467,45.800158
122.0,50.0,FRPD1PSYUGCH,Power Dot France,Power Dot France,4.984437,47.234478
36.0,18.0,FRS77E77291001,Bouygues E&S,Ecocharge77,2.591242,49.017696
272.0,100.0,FRPD1PUBSVAR,Power Dot France,Power Dot France,1.455166,45.191778
36.0,18.0,FRS77E77457001,Bouygues E&S,Ecocharge77,2.717254,48.657776
366.0,50.0,FRPD1PIMCVER,Power Dot France,Power Dot France,1.370461,48.718601
742.0,200.0,FRPD1PMATAUB,Power Dot France,Power Dot France,3.236496,50.334167
122.0,50.0,FRPD1PITMSNZ,Power Dot France,Power Dot France,-2.238381,47.263336
3000.0,250.0,FRTSLP30248,Tesla,Tesla,43.95773,43.95773
672.0,200.0,FRPD1PETXMTV,Power Dot France,Power Dot France,0.190331,49.523734
672.0,200.0,FRPD1PBRIISS,Power Dot France,Power Dot France,2.006685,46.950522
7000.0,250.0,FRTSLP5367,Tesla,Tesla,44.675244,44.675244
444.0,100.0,FRPD1PHLIGPS,Power Dot France,Power Dot France,7.697577,48.510363
36.0,18.0,FRS77E77359001,Bouygues E&S,Ecocharge77,2.552458,48.474224
36.0,18.0,FRS77E77031001,Bouygues E&S,Ecocharge77,2.938246,48.675091
1216.0,175.0,FRPD1PHF1CMF,Power Dot France,Power Dot France,3.140534,45.785687
432.0,120.0,FRPD1PLABVAN,Power Dot France,Power Dot France,-2.789267,47.667516
672.0,200.0,FRPD1PBWNSEL,Power Dot France,Power Dot France,7.42364,48.255447
572.0,100.0,FRPD1PIBSAVI,Power Dot France,Power Dot France,4.844205,43.926319
3000.0,150.0,FRTSLP3319,Tesla,Tesla,46.496391,46.496391
102.0,40.0,FRPD1PITMMBL,Power Dot France,Power Dot France,6.792553,47.503541
262.0,120.0,FRPD1PCLBSTL,Power Dot France,Power Dot France,-0.49174,44.901718
88.0,22.0,FRPD1PSIMFRDEV,Power Dot France,Power Dot France,5.889694,45.594984
36.0,18.0,FRS77E77341001,Bouygues E&S,Ecocharge77,3.35106,48.45281
7000.0,250.0,FRTSLP30207,Tesla,Tesla,43.980282,43.980282
44.0,22.0,FRS77E77316002,Bouygues E&S,Ecocharge77,2.81331339,48.3730084
90.0,24.0,FRS77E77131003,Bouygues E&S,Ecocharge77,3.0876685,48.8119668
534.0,120.0,FRPD1PITMCON,Power Dot France,Power Dot France,-3.893978,47.869269
1322.0,200.0,FRPD1PKFCESS,Power Dot France,Power Dot France,6.246837,48.710291
372.0,100.0,FRPD1PCLIEAG,Power Dot France,Power Dot France,0.629226,44.185944
8000.0,250.0,FRTSLP20437,Tesla,Tesla,44.036554,44.036554
632.0,200.0,FRPD1PCRFSAL,Power Dot France,Power Dot France,-0.873671,44.546977
5000.0,250.0,FRTSLP17477,Tesla,Tesla,42.775249,42.775249
632.0,200.0,FRPD1PLBCMRL,Power Dot France,Power Dot France,-3.813515,48.596629
2000.0,250.0,FRTSLP34043,Tesla,Tesla,46.340231,46.340231
462.0,160.0,FRPD1PSPOGND,Power Dot France,Power Dot France,1.300347,43.760657
3094.0,200.0,FRPD1PCORFLE,Power Dot France,Power Dot France,3.121182,50.635848
432.0,120.0,FRPD1PMARMAU,Power Dot France,Power Dot France,3.957928,50.281726
400.0,100.0,FRPD1PITMMHG,Power Dot France,Power Dot France,6.653132,48.93329
366.0,50.0,FRPD1PIMCHAZ,Power Dot France,Power Dot France,2.549622,50.737511
36.0,18.0,FRS77E77516001,Bouygues E&S,Ecocharge77,2.895756,48.342731
502.0,120.0,FRPD1PHOLAVI,Power Dot France,Power Dot France,2.817673,50.409548
632.0,200.0,FRPD1PIBSVDA,Power Dot France,Power Dot France,3.142761,50.643382
794.0,100.0,FRPD1PETXBSC,Power Dot France,Power Dot France,5.950243,47.217868
772.0,100.0,FRPD1PETXBRT,Power Dot France,Power Dot France,0.969112,49.531144
632.0,200.0,FRPD1PBLGANG,Power Dot France,Power Dot France,-0.539075,47.448777
44.0,22.0,FRS77E77316005,Bouygues E&S,Ecocharge77,2.826122,48.359825
1098.0,188.0,FRPD1PITMPLT,Power Dot France,Power Dot France,1.308718,43.569101
6000.0,250.0,FRTSLP33176,Tesla,Tesla,43.68814,43.68814
1500.0,150.0,FRTSLP5670,Tesla,Tesla,43.413832,43.413832
272.0,100.0,FRPD1PBRTACH,Power Dot France,Power Dot France,-1.652726,46.602682
500.0,125.0,FRTSLP1760,Tesla,Tesla,48.924817,48.924817
122.0,100.0,FRPD1PGAMSJL,Power Dot France,Power Dot France,0.495406,46.559061
344.0,100.0,FRPD1PCORERM,Power Dot France,Power Dot France,2.246389,48.988611
1200.0,150.0,FRTSLP6308,Tesla,Tesla,48.988703,48.988703
792.0,200.0,FRPD1PACCSTE,Power Dot France,Power Dot France,4.396468,45.459472
36.0,18.0,FRS77E77072001,Bouygues E&S,Ecocharge77,3.459796,48.54184
1047.0,187.5,FRPD1PSYURDS,Power Dot France,Power Dot France,7.358323,47.747224
394.0,100.0,FRPD1PITMLBZ,Power Dot France,Power Dot France,0.922971,43.470219
194.0,100.0,FRPD1PITMBRH,Power Dot France,Power Dot France,7.492593,47.636394
672.0,200.0,FRPD1PESPSMO,Power Dot France,Power Dot France,-1.911214,48.638931
122.0,50.0,FRPD1PITMCOR,Power Dot France,Power Dot France,4.902064,45.659657
4000.0,250.0,FRTSLP3078,Tesla,Tesla,48.494194,48.494194
36.0,18.0,FRS77E77106001,Bouygues E&S,Ecocharge77,3.184065,48.81773
46.0,24.0,FRS77E77006001,Bouygues E&S,Ecocharge77,2.563657,48.409948
672.0,100.0,FRPD1PLCLCHA,Power Dot France,Power Dot France,-1.050761,46.700652
3000.0,250.0,FRTSLP11417,Tesla,Tesla,46.298759,46.298759
748.0,188.0,FRPD1PBRCFIM,Power Dot France,Power Dot France,49.253048,49.253048
324.0,120.0,FRPD1PITMBNL,Power Dot France,Power Dot France,-3.704963,47.926571
747.0,187.5,FRPD1PITMMTG,Power Dot France,Power Dot France,1.153016,45.05648
44.0,22.0,FRS77E77352001,Bouygues E&S,Ecocharge77,2.772659,48.660645
672.0,200.0,FRPD1PINTFAI,Power Dot France,Power Dot France,5.135699,48.787186
36.0,18.0,FRS77E77273001,Bouygues E&S,Ecocharge77,2.771959,49.049637
1200.0,150.0,FRTSLP1771,Tesla,Tesla,47.406928,47.406928
36.0,18.0,FRS77E77022001,Bouygues E&S,Ecocharge77,2.603382,48.44495
122.17025,50.0,FRPD1PGDMAUB,Power Dot France,Power Dot France,3.149158,45.75493
872.0,160.0,FRPD1PACTMRM,Power Dot France,Power Dot France,1.042494,49.474877
36.0,18.0,FRS77E77054001,Bouygues E&S,Ecocharge77,3.021417,48.343342
3000.0,250.0,FRTSLP33158,Tesla,Tesla,47.216835,47.216835
372.0,100.0,FRPD1PKFCBOJ,Power Dot France,Power Dot France,2.422744,47.094473
1500.0,150.0,FRTSLP3318,Tesla,Tesla,50.167321,50.167321
948.0,188.0,FRPD1PBSFRQV,Power Dot France,Power Dot France,5.599204,43.337416
872.0,160.0,FRPD1PMATARR,Power Dot France,Power Dot France,2.788903,50.277402
88.0,22.0,FRPD1PMRGSTB,Power Dot France,Power Dot France,7.745962,48.58211
3000.0,250.0,FRTSLP30243,Tesla,Tesla,43.481932,43.481932
366.0,100.0,FRPD1PCORWIT,Power Dot France,Power Dot France,7.313469,47.809464
122.0,50.0,FRPD1PITMLLB,Power Dot France,Power Dot France,0.531517,49.516155
747.0,187.5,FRPD1PITMDST,Power Dot France,Power Dot France,5.597399,43.389436
122.0,100.0,FRPD1PBDMDR2,Power Dot France,Power Dot France,1.362238,48.74733
632.0,200.0,FRPD1PBRTPPN,Power Dot France,Power Dot France,2.88474,42.659679
1500.0,187.5,FRPD1PLABERK,Power Dot France,Power Dot France,0.45486,44.836667
434.0,120.0,FRPD1PSPULMR,Power Dot France,Power Dot France,-3.720019,48.641981
792.0,200.0,FRPD1PITMLLD,Power Dot France,Power Dot France,0.151974,47.639465
36.0,18.0,FRS77E77266001,Bouygues E&S,Ecocharge77,2.829,48.455761
122.0,50.0,FRPD1PGSTFEW,Power Dot France,Power Dot France,2.900003,50.583715
662.0,160.0,FRPD1PGSTLIV,Power Dot France,Power Dot France,2.552086,48.92545
366.0,50.0,FRPD1PSYUNSN,Power Dot France,Power Dot France,2.562726,48.865822
1072.0,150.0,FRPD1PCOREVR,Power Dot France,Power Dot France,1.133649,49.023354
2238.0,150.0,FRPD1PBDMCAR,Power Dot France,Power Dot France,2.624249,48.520225
748.0,188.0,FRPD1PMBPCAO,Power Dot France,Power Dot France,4.781963,45.804551
2000.0,250.0,FRTSLP5675,Tesla,Tesla,44.202887,44.202887
548.0,188.0,FRPD1PMBRSRC,Power Dot France,Power Dot France,0.343418,49.528182
36.0,18.0,FRS77E77107001,Bouygues E&S,Ecocharge77,2.841548,48.664284
3000.0,150.0,FRTSLP1732,Tesla,Tesla,46.346796,46.346796
322.0,100.0,FRPD1PSYUPXX,Power Dot France,Power Dot France,6.572899,48.109398
36.0,18.0,FRS77E77303001,Bouygues E&S,Ecocharge77,3.427434,48.851772
3000.0,250.0,FRTSLP29777,Tesla,Tesla,49.645036,49.645036
750.0,250.0,FRTSLP427106,Tesla,Tesla,46.217424,46.217424
672.0,200.0,FRPD1PRTPVAG,Power Dot France,Power Dot France,0.881137,44.112488
1082.0,180.0,FRPD1PCORSMA,Power Dot France,Power Dot France,-1.977587,48.60614
250.0,125.0,FRTSLP11193,Tesla,Tesla,50.935041,50.935041
272.0,100.0,FRPD1PCRFPAA,Power Dot France,Power Dot France,-0.877083,45.829849
632.0,200.0,FRPD1PRSTTRG,Power Dot France,Power Dot France,-2.76187,48.489341
1200.0,150.0,FRTSLP6462,Tesla,Tesla,47.234946,47.234946
36.0,18.0,FRS77E77073001,Bouygues E&S,Ecocharge77,3.314407,48.529079
900.0,187.5,FRPD1PMATDIE,Power Dot France,Power Dot France,6.714868,48.81191
632.0,200.0,FRPD1PMATGRN,Power Dot France,Power Dot France,2.74085,50.446492
372.0,100.0,FRPD1PSYUTLG,Power Dot France,Power Dot France,6.175958,49.242403
632.0,200.0,FRPD1PMRCVFT,Power Dot France,Power Dot France,5.166847,45.627215
3000.0,250.0,FRTSLP11192,Tesla,Tesla,48.82751,48.82751
294.0,100.0,FRPD1PCOHEPN,Power Dot France,Power Dot France,1.831528,48.956823
482.0,120.0,FRPD1PIBICRO,Power Dot France,Power Dot France,5.889822,45.271943
632.0,200.0,FRPD1PITMSVS,Power Dot France,Power Dot France,5.162487,46.12846
502.0,120.0,FRPD1PMARGAU,Power Dot France,Power Dot France,3.28848,49.833902
264.0,60.0,FRPD1PBRCEST,Power Dot France,Power Dot France,0.760716,43.116064
36.0,18.0,FRS77E77301001,Bouygues E&S,Ecocharge77,3.438183,48.694653
44.0,22.0,FRS77E77284003,Bouygues E&S,Ecocharge77,2.882553,48.967475
4000.0,250.0,FRTSLP34042,Tesla,Tesla,45.011961,45.011961
572.0,100.0,FRPD1PIMCDIJ,Power Dot France,Power Dot France,5.029678,47.354847
1691.0,187.5,FRPD1PGRACHA,Power Dot France,Power Dot France,0.357958,46.649006
4000.0,250.0,FRTSLP30252,Tesla,Tesla,51.005494,51.005494
194.0,50.0,FRPD1PECACOL,Power Dot France,Power Dot France,7.379145,48.079538
36.0,18.0,FRS77E77385001,Bouygues E&S,Ecocharge77,3.233131,48.848412
697.0,125.0,FRPD1PITMSJV,Power Dot France,Power Dot France,4.096844,48.280868
5000.0,250.0,FRTSLP20265,Tesla,Tesla,43.11655,43.11655
22.0,22.0,FRPD1PMARGCL,Power Dot France,Power Dot France,3.280572,49.829869
372.0,100.0,FRPD1PMATCUQ,Power Dot France,Power Dot France,1.624372,50.506662
2194.0,200.0,FRPD1PCHAVDB,Power Dot France,Power Dot France,5.948364,49.254202
7250.0,250.0,FRTSLP17341,Tesla,Tesla,48.053197,48.053197
987.0,187.5,FRPD1PCHABRI,Power Dot France,Power Dot France,5.944852,49.25475
36.0,18.0,FRS77E77518001,Bouygues E&S,Ecocharge77,2.599086,48.494175
222.0,100.0,FRPD1PIMCSRT,Power Dot France,Power Dot France,2.20574,48.948018
572.0,100.0,FRPD1PLEOBRB,Power Dot France,Power Dot France,2.346271,47.048036
36.0,18.0,FRS77E77480001,Bouygues E&S,Ecocharge77,2.891339,48.44434
44.0,22.0,FRS77E77226001,Bouygues E&S,Ecocharge77,2.765274,48.448474
172.0,100.0,FRPD1PMRBDOM,Power Dot France,Power Dot France,6.348528,48.623363
500.0,125.0,FRTSLP2819,Tesla,Tesla,43.66792,43.66792
872.0,160.0,FRPD1PITMTRY,Power Dot France,Power Dot France,4.087793,48.30126
454.0,120.0,FRPD1PACTCHA,Power Dot France,Power Dot France,2.720592,48.009013
36.0,18.0,FRS77E77152001,Bouygues E&S,Ecocharge77,2.635144,48.515441
122.0,50.0,FRPD1PSCICHV,Power Dot France,Power Dot France,4.882617,44.906212
172.0,100.0,FRPD1PKFCMBL,Power Dot France,Power Dot France,4.056143,46.066287
547.0,187.5,FRPD1PSYUESS,Power Dot France,Power Dot France,6.82898,47.634806
952.0,200.0,FRPD1PCARSAI,Power Dot France,Power Dot France,4.087145,48.26672
966.0,100.0,FRPD1PACCVDA,Power Dot France,Power Dot France,3.143224,50.642391
344.0,100.0,FRPD1PSYUJVL,Power Dot France,Power Dot France,5.156966,48.446887
82.0,30.0,FRPD1PITMVLS,Power Dot France,Power Dot France,2.811149,48.375295
472.0,100.0,FRPD1PKFCASL,Power Dot France,Power Dot France,6.438623,46.352774
632.0,200.0,FRPD1PMRBCSC,Power Dot France,Power Dot France,4.964155,46.115984
8000.0,250.0,FRTSLP3439,Tesla,Tesla,47.9915,47.9915
2792.0,200.0,FRPD1PCORHOU,Power Dot France,Power Dot France,6.184486,48.639134
36.0,18.0,FRS77E77517001,Bouygues E&S,Ecocharge77,2.672179,48.900551
7000.0,250.0,FRTSLP16733,Tesla,Tesla,44.793792,44.793792
572.0,100.0,FRPD1PJJHPMD,Power Dot France,Power Dot France,-0.629655,44.954181
454.0,120.0,FRPD1PSTWLCV,Power Dot France,Power Dot France,-1.336876,46.66658
1324.0,160.0,FRPD1PSGNLFP,Power Dot France,Power Dot France,0.384154,45.751978
122.0,50.0,FRPD1PMBRCOL,Power Dot France,Power Dot France,7.340693,48.063703
1009.5,187.5,FRPD1PATLSGM,Power Dot France,Power Dot France,-1.231847,43.71288
122.0,50.0,FRPD1PITMCHV,Power Dot France,Power Dot France,0.333642,47.02149
472.0,200.0,FRPD1PCHAECH,Power Dot France,Power Dot France,5.694314,45.150182
322.0,100.0,FRPD1POPZWSH,Power Dot France,Power Dot France,7.599005,48.643763
122.0,50.0,FRPD1PSPASAZ,Power Dot France,Power Dot France,4.683839,43.947339
712.0,160.0,FRPD1PCAPORL,Power Dot France,Power Dot France,1.896237,47.898684
70.0,24.0,FRPD1PITMRLP,Power Dot France,Power Dot France,4.902254,45.818406
244.0,100.0,FRPD1PFLSTRB,Power Dot France,Power Dot France,0.056054,43.237038
472.0,150.0,FRPD1PIBSVSL,Power Dot France,Power Dot France,0.743332,44.407239
36.0,18.0,FRS77E77036001,Bouygues E&S,Ecocharge77,3.226534,48.684597
122.0,50.0,FRPD1PBDMMTL,Power Dot France,Power Dot France,4.745278,44.535391
412.0,120.0,FRPD1PRETAZA,Power Dot France,Power Dot France,0.474015,47.267582
432.0,120.0,FRPD1PBUFFAM,Power Dot France,Power Dot France,6.135302,49.246665
922.0,100.0,FRPD1PITMCHN,Power Dot France,Power Dot France,3.215919,49.626343
672.0,200.0,FRPD1PRTLPRV,Power Dot France,Power Dot France,4.606213,44.718272
672.0,200.0,FRPD1PMBRSFU,Power Dot France,Power Dot France,-1.173167,46.857958
122.0,50.0,FRPD1PSYUHAB,Power Dot France,Power Dot France,7.0397,49.08791
244.0,50.0,FRPD1PBRCRXB,Power Dot France,Power Dot France,1.105371,49.908234
322.0,100.0,FRPD1PITMEVR,Power Dot France,Power Dot France,1.181812,49.027548
3000.0,250.0,FRTSLP30183,Tesla,Tesla,45.461071,45.461071
572.0,100.0,FRPD1PIBSSTE,Power Dot France,Power Dot France,4.401322,45.455748
46.0,24.0,FRS77E77118002,Bouygues E&S,Ecocharge77,2.687649,48.945904
2000.0,250.0,FRTSLP30242,Tesla,Tesla,45.266392,45.266392
36.0,18.0,FRS77E77272001,Bouygues E&S,Ecocharge77,3.151188,48.558975
3000.0,250.0,FRTSLP28329,Tesla,Tesla,49.414263,49.414263
900.0,150.0,FRTSLP1750,Tesla,Tesla,45.698042,45.698042
394.0,100.0,FRPD1PMARLAU,Power Dot France,Power Dot France,4.025141,48.308282
502.0,120.0,FRPD1PACTLSL,Power Dot France,Power Dot France,2.85987,50.445673
1022.0,150.0,FRPD1PCORMDL,Power Dot France,Power Dot France,6.174964,49.259902
672.0,200.0,FRPD1PLAVGRA,Power Dot France,Power Dot France,-0.640931,44.774555
552.0,160.0,FRPD1PITMVRT,Power Dot France,Power Dot France,0.831174,47.350787
672.0,200.0,FRPD1PMBCCBO,Power Dot France,Power Dot France,-1.413818,43.355552
1032.1702500000001,200.0,FRPD1PMATARM,Power Dot France,Power Dot France,2.873278,50.682517
36.0,18.0,FRS77E77477001,Bouygues E&S,Ecocharge77,2.602099,48.342205
412.0,120.0,FRPD1PACTVDR,Power Dot France,Power Dot France,2.027079,44.358786
36.0,18.0,FRS77E77443001,Bouygues E&S,Ecocharge77,2.961653,48.885735
632.0,200.0,FRPD1PACCMAR,Power Dot France,Power Dot France,5.474741,43.300375
572.17025,100.0,FRPD1PIBSSHB,Power Dot France,Power Dot France,-1.619925,47.247918
1019.0,187.5,FRPD1PITMPLS,Power Dot France,Power Dot France,2.876375,42.641151
90.0,24.0,FRS77E77288005,Bouygues E&S,Ecocharge77,2.66658651658295,48.5308143918996
366.0,50.0,FRPD1PGSTAVI,Power Dot France,Power Dot France,4.867836,43.920486
459.5,187.5,FRPD1PCORDLS,Power Dot France,Power Dot France,7.496723,48.527606
36.0,18.0,FRS77E77357001,Bouygues E&S,Ecocharge77,3.079428,48.656075
772.0,100.0,FRPD1PINVCHA,Power Dot France,Power Dot France,4.396409,48.94234
222.0,100.0,FRPD1PMBRANO,Power Dot France,Power Dot France,2.943157,50.528533
272.0,100.0,FRPD1PINTMAR,Power Dot France,Power Dot France,5.76304,47.287445
122.0,50.0,FRPD1PITMCLC,Power Dot France,Power Dot France,-3.433383,48.407434
900.0,150.0,FRTSLP2986,Tesla,Tesla,48.057498,48.057498
122.0,50.0,FRPD1PCRFNNC,Power Dot France,Power Dot France,1.215217,48.764163
312.0,120.0,FRPD1PEPCMTB,Power Dot France,Power Dot France,1.373349,44.031969
4000.0,250.0,FRTSLP28780,Tesla,Tesla,46.836112,46.836112
122.0,50.0,FRPD1PIBISLO,Power Dot France,Power Dot France,5.557307,46.694336
632.0,200.0,FRPD1PMATCRI,Power Dot France,Power Dot France,2.475836,50.48419
1800.0,150.0,FRTSLP1753,Tesla,Tesla,49.216455,49.216455
1097.0,187.5,FRPD1PCORSTM,Power Dot France,Power Dot France,6.969748,48.271954
472.0,100.0,FRPD1PIBSMON,Power Dot France,Power Dot France,2.672649,47.9959
36.0,18.0,FRS77E77318001,Bouygues E&S,Ecocharge77,2.915816,48.789227
416.0,100.0,FRPD1PCORLPD,Power Dot France,Power Dot France,3.197296,45.779145
922.0,100.0,FRPD1PCORBRY,Power Dot France,Power Dot France,2.569712,50.493883
36.0,18.0,FRS77E77493001,Bouygues E&S,Ecocharge77,2.835405,48.644661
632.0,200.0,FRPD1PITSLPB,Power Dot France,Power Dot France,5.688301,45.529024
36.0,18.0,FRS77E77016001,Bouygues E&S,Ecocharge77,2.706278,48.231504
122.0,50.0,FRPD1PITMRET,Power Dot France,Power Dot France,4.029915,45.211154
244.0,50.0,FRPD1PCORMSY,Power Dot France,Power Dot France,2.276708,48.725267
36.0,18.0,FRS77E77089001,Bouygues E&S,Ecocharge77,2.971726,48.511906
36.0,18.0,FRS77E77531001,Bouygues E&S,Ecocharge77,2.969121,48.282539
672.0,200.0,FRPD1PLSETRC,Power Dot France,Power Dot France,1.800417,49.286719
600.0,150.0,FRTSLP1733,Tesla,Tesla,45.560908,45.560908
122.0,50.0,FRPD1PWAPBIA,Power Dot France,Power Dot France,0.69103,44.403765
36.0,18.0,FRS77E77524001,Bouygues E&S,Ecocharge77,3.165309,48.439373
1012.0,120.0,FRPD1PCORMET,Power Dot France,Power Dot France,6.227761,49.106266
3250.0,250.0,FRTSLP7139,Tesla,Tesla,46.377854,46.377854
264.0,60.0,FRPD1PBCMCEC,Power Dot France,Power Dot France,4.356305,48.978359
980.0,200.0,FRPD1PSYULGN,Power Dot France,Power Dot France,-0.59952,44.73295
72.0,50.0,FRPD1POPZETZ,Power Dot France,Power Dot France,7.652403,48.541461
672.0,200.0,FRPD1PMBRSVN,Power Dot France,Power Dot France,-1.933102,47.372259
7000.0,250.0,FRTSLP30513,Tesla,Tesla,43.80783,43.80783
1098.0,188.0,FRPD1PSYUBRC,Power Dot France,Power Dot France,2.600909,48.703179
36.0,18.0,FRS77E77101001,Bouygues E&S,Ecocharge77,3.096748,48.419575
1060.0,120.0,FRPD1PITMBLM,Power Dot France,Power Dot France,1.488649,43.614688
466.0,100.0,FRPD1PCORDOL,Power Dot France,Power Dot France,5.453758,47.065868
350.0,100.0,FRPD1PNETMRS,Power Dot France,Power Dot France,5.383585,43.327246
10000.0,250.0,FRTSLP28783,Tesla,Tesla,49.359966,49.359966
747.0,187.5,FRPD1PSYUFTY,Power Dot France,Power Dot France,5.979914,49.356349
1200.0,150.0,FRTSLP1742,Tesla,Tesla,47.282833,47.282833
632.0,200.0,FRPD1PSUUSLD,Power Dot France,Power Dot France,5.100082,47.291004
9000.0,250.0,FRTSLP31397,Tesla,Tesla,47.853468,47.853468
132.0,60.0,FRPD1PITMJLM,Power Dot France,Power Dot France,6.208286,48.669183
672.0,200.0,FRPD1PIRKMDM,Power Dot France,Power Dot France,-0.488574,43.887204
272.0,100.0,FRPD1PBCMCRX,Power Dot France,Power Dot France,-3.570846,48.270624
244.0,50.0,FRPD1PITMRDF,Power Dot France,Power Dot France,1.609283,50.414179
520.0,130.0,FRTSLP1719,Tesla,Tesla,43.511775,43.511775
672.0,200.0,FRPD1PHOLVIL,Power Dot France,Power Dot France,3.103108,49.238731
632.0,200.0,FRPD1PBBBLVS,Power Dot France,Power Dot France,-1.355046,48.658007
322.0,100.0,FRPD1PITMYVR,Power Dot France,Power Dot France,-0.46918,44.870705
672.0,200.0,FRPD1PCHANEU,Power Dot France,Power Dot France,5.707625,48.366528
432.0,120.0,FRPD1PSUBVER,Power Dot France,Power Dot France,-1.463886,47.185961
3000.0,250.0,FRTSLP7138,Tesla,Tesla,45.952691,45.952691
442.0,160.0,FRPD1PIBSGSA,Power Dot France,Power Dot France,5.927047,45.71821
747.0,187.5,FRPD1PITMLYS,Power Dot France,Power Dot France,1.189441,43.511927
384.0,120.0,FRPD1PMBCLMX,Power Dot France,Power Dot France,2.221778,43.072466
36.0,18.0,FRS77E77338001,Bouygues E&S,Ecocharge77,2.928877,48.335297
90.0,24.0,FRS77E77441001,Bouygues E&S,Ecocharge77,2.746701,48.451259
250.0,100.0,FRPD1PCOHCLM,Power Dot France,Power Dot France,7.36046,48.087587
632.0,200.0,FRPD1PRNTDST,Power Dot France,Power Dot France,5.59911,43.38832
36.0,18.0,FRS77E77153001,Bouygues E&S,Ecocharge77,2.684942,49.053848
632.0,200.0,FRPD1PIBIBIR,Power Dot France,Power Dot France,-0.751824,43.466117
1200.0,150.0,FRTSLP1761,Tesla,Tesla,48.533868,48.533868
322.0,100.0,FRPD1PKFCBJL,Power Dot France,Power Dot France,5.239921,45.595823
547.0,187.5,FRPD1PITMNOI,Power Dot France,Power Dot France,3.764839,45.822576
1388.1702500000001,188.0,FRPD1PLECCHO,Power Dot France,Power Dot France,-0.851421,47.051435
222.0,100.0,FRPD1PSYUNVE,Power Dot France,Power Dot France,7.316358,48.33831
122.0,50.0,FRPD1PSYUTVX,Power Dot France,Power Dot France,5.418197,47.042464
344.0,100.0,FRPD1PIBSMAC,Power Dot France,Power Dot France,4.804604,46.281441
872.17025,200.0,FRPD1PITMBUC,Power Dot France,Power Dot France,2.118335,48.767196
700.0,100.0,FRPD1PCORSTR,Power Dot France,Power Dot France,7.725816,48.651665
432.0,120.0,FRPD1PMARLAM,Power Dot France,Power Dot France,3.093477,50.343246
4000.0,250.0,FRTSLP30257,Tesla,Tesla,49.409907,49.409907
122.0,50.0,FRPD1PNETGUE,Power Dot France,Power Dot France,1.873135,46.162036
44.0,22.0,FRS77E77316006,Bouygues E&S,Ecocharge77,2.7862159,48.334653
354.0,160.0,FRPD1PMATACH,Power Dot France,Power Dot France,7.631494,48.583213
1500.0,250.0,FRTSLP30182,Tesla,Tesla,48.623657,48.623657
900.0,150.0,FRTSLP1766,Tesla,Tesla,48.755101,48.755101
672.0,200.0,FRPD1PGMVOLR,Power Dot France,Power Dot France,-0.615272,43.178857
44.0,22.0,FRS77E77123001,Bouygues E&S,Ecocharge77,2.664208,48.993346
322.0,100.0,FRPD1PKFCVAL,Power Dot France,Power Dot France,4.883138,44.902036
547.0,187.5,FRPD1PACTVDD,Power Dot France,Power Dot France,0.937118,48.737151
632.0,200.0,FRPD1PITMSPD,Power Dot France,Power Dot France,-1.072733,43.726208
502.0,120.0,FRPD1PSATEPA,Power Dot France,Power Dot France,6.077668,45.93667
366.0,50.0,FRPD1PSYUVDB,Power Dot France,Power Dot France,5.944798,49.255884
46.0,24.0,FRS77E77175002,Bouygues E&S,Ecocharge77,2.6332372,48.6528679
122.0,50.0,FRPD1PSYUTRE,Power Dot France,Power Dot France,2.442342,43.203196
792.0,200.0,FRPD1PACCTLB,Power Dot France,Power Dot France,6.508923,46.382027
3000.0,250.0,FRTSLP33181,Tesla,Tesla,43.074792,43.074792
36.0,18.0,FRS77E77310001,Bouygues E&S,Ecocharge77,3.253999,48.383236
132.0,60.0,FRPD1PITMGSY,Power Dot France,Power Dot France,1.609064,49.096542
672.0,200.0,FRPD1PMBCSVS,Power Dot France,Power Dot France,0.120506,46.133508
462.0,120.0,FRPD1PITMPMD,Power Dot France,Power Dot France,-4.229884,48.181874
747.0,187.5,FRPD1PBRTPGY,Power Dot France,Power Dot France,-1.110449,46.153241
572.0,100.0,FRPD1PNETSTQ,Power Dot France,Power Dot France,3.30612,49.829911
344.0,100.0,FRPD1PRTPMRC,Power Dot France,Power Dot France,2.031683,50.366158
36.0,18.0,FRS77E77458001,Bouygues E&S,Ecocharge77,2.73093,48.18083
122.0,50.0,FRPD1PMBRBRG,Power Dot France,Power Dot France,9.440961,42.55232
672.0,200.0,FRPD1PMONLAC,Power Dot France,Power Dot France,-0.747754,46.646394
772.0,100.0,FRPD1PBOUSUL,Power Dot France,Power Dot France,0.649574,48.760971
552.0,160.0,FRPD1PBUFPTL,Power Dot France,Power Dot France,6.330926,46.903756
122.0,50.0,FRPD1PMBRBLW,Power Dot France,Power Dot France,7.257192,47.862323
432.0,120.0,FRPD1PSYSVAG,Power Dot France,Power Dot France,6.714362,48.011984
662.0,160.0,FRPD1PCRFCCN,Power Dot France,Power Dot France,-1.037267,45.07886
122.0,50.0,FRPD1PBCMCHY,Power Dot France,Power Dot France,3.214251,49.625699
122.0,50.0,FRPD1PWELSRT,Power Dot France,Power Dot France,7.446063,47.664622
82.0,60.0,FRPD1PWELHES,Power Dot France,Power Dot France,7.533466,47.579657
547.0,187.5,FRPD1PMRBCHP,Power Dot France,Power Dot France,0.177651,45.688671
672.0,200.0,FRPD1PACTCHO,Power Dot France,Power Dot France,-0.845105,47.075085
394.0,100.0,FRPD1PIBSLGV,Power Dot France,Power Dot France,5.043368,47.271652
792.0,200.0,FRPD1PACTLMN,Power Dot France,Power Dot France,4.771335,45.818628
172.0,100.0,FRPD1PBTHRON,Power Dot France,Power Dot France,1.109209,49.438873
36.0,18.0,FRS77E77042001,Bouygues E&S,Ecocharge77,3.13829,48.8218
5000.0,250.0,FRTSLP30031,Tesla,Tesla,48.103962,48.103962
632.0,200.0,FRPD1PSTJSJS,Power Dot France,Power Dot France,5.430999,45.568248
394.0,100.0,FRPD1PACCSAT,Power Dot France,Power Dot France,0.164805,48.051587
2250.0,250.0,FRTSLP33173,Tesla,Tesla,46.701238,46.701238
632.0,200.0,FRPD1PNETTRY,Power Dot France,Power Dot France,4.081151,48.27369
272.0,100.0,FRPD1PMBCHDY,Power Dot France,Power Dot France,-1.768924,43.349544
2000.0,250.0,FRTSLP29904,Tesla,Tesla,48.616299,48.616299
3000.0,250.0,FRTSLP34981,Tesla,Tesla,47.605183,47.605183
672.0,200.0,FRPD1PBWTGRD,Power Dot France,Power Dot France,-2.416608,47.325342
2748.0,200.0,FRPD1PLCOPPG,Power Dot France,Power Dot France,2.943781,42.702
172.0,100.0,FRPD1PHYGESP,Power Dot France,Power Dot France,0.181047,45.66081
4000.0,250.0,FRTSLP5177,Tesla,Tesla,43.60234,43.60234
194.0,100.0,FRPD1PKFCARL,Power Dot France,Power Dot France,4.63243,43.666113
922.0,100.0,FRPD1PCORROT,Power Dot France,Power Dot France,-0.460938,49.199312
632.0,200.0,FRPD1PMATVXC,Power Dot France,Power Dot France,3.567718,50.461076
36.0,18.0,FRS77E77279001,Bouygues E&S,Ecocharge77,3.034994,48.38625
36.0,18.0,FRS77E77345001,Bouygues E&S,Ecocharge77,3.229534,48.904442
122.0,50.0,FRPD1PSYUSAN,Power Dot France,Power Dot France,1.936546,48.57205
44.0,22.0,FRS77E774470011,Bouygues E&S,Ecocharge77,2.549188,48.557755
44.0,22.0,FRPD1PBWNBDS,Power Dot France,Power Dot France,7.37957,47.80179
1202.0,200.0,FRPD1PLIDBRI,Power Dot France,Power Dot France,3.374025,45.313669
5000.0,250.0,FRTSLP27522,Tesla,Tesla,45.895509,45.895509
552.0,160.0,FRPD1PLBCSDZ,Power Dot France,Power Dot France,4.963936,48.623367
1500.0,250.0,FRTSLP30203,Tesla,Tesla,44.771085,44.771085
524.0,120.0,FRPD1PESCMAC,Power Dot France,Power Dot France,4.823673,46.315926
594.0,100.0,FRPD1PMBRCST,Power Dot France,Power Dot France,2.27007,43.589785
450.0,200.0,FRPD1PORCEGR,Power Dot France,Power Dot France,5.66946,45.238618
672.0,200.0,FRPD1PCHAESS,Power Dot France,Power Dot France,6.246142,48.710534
572.0,100.0,FRPD1PACTLBT,Power Dot France,Power Dot France,6.982312,47.495345
602.0,120.0,FRPD1PSYUSSI,Power Dot France,Power Dot France,-0.013064,45.014684
954.0,180.0,FRPD1PDRTAUR,Power Dot France,Power Dot France,-3.006967,47.665569
36.0,18.0,FRS77E77100001,Bouygues E&S,Ecocharge77,2.79478,48.505161
7000.0,250.0,FRTSLP33155,Tesla,Tesla,48.082979,48.082979
662.0,80.0,FRPD1PACTALB,Power Dot France,Power Dot France,2.660412,49.995617
44.0,22.0,FRS77E77142003,Bouygues E&S,Ecocharge77,2.908856,48.858352
547.0,187.5,FRPD1PITMLBU,Power Dot France,Power Dot France,2.273483,43.547772
662.0,160.0,FRPD1PITMRQF,Power Dot France,Power Dot France,0.559453,44.175871
662.0,160.0,FRPD1PLBCSLV,Power Dot France,Power Dot France,0.440853,44.833314
4000.0,250.0,FRTSLP29579,Tesla,Tesla,45.823795,45.823795
172.0,100.0,FRPD1PGSTFCV,Power Dot France,Power Dot France,2.208255,48.98861
502.0,120.0,FRPD1PPIPBEB,Power Dot France,Power Dot France,5.247452,46.200075
569.0,187.5,FRPD1PSYUMNT,Power Dot France,Power Dot France,4.993478,44.034583
502.0,120.0,FRPD1PITMANG,Power Dot France,Power Dot France,-0.535374,47.455514
3044.0,187.5,FRPD1PIMCSOY,Power Dot France,Power Dot France,0.205011,45.638188
632.0,200.0,FRPD1PBTHLCS,Power Dot France,Power Dot France,4.029371,48.323883
1712.0,200.0,FRPD1PCORSSO,Power Dot France,Power Dot France,3.313403,49.370167
1219.0,200.0,FRPD1PACTCAR,Power Dot France,Power Dot France,-3.554087,48.277567
394.0,100.0,FRPD1PIBIPOU,Power Dot France,Power Dot France,4.567524,47.247971
372.0,100.0,FRPD1PHOLTER,Power Dot France,Power Dot France,3.28317,49.651234
36.0,18.0,FRS77E77184001,Bouygues E&S,Ecocharge77,2.922666,48.312195
672.0,200.0,FRPD1PITMPRM,Power Dot France,Power Dot France,-2.402037,47.923948
132.0,60.0,FRPD1PKFCADZ,Power Dot France,Power Dot France,4.295281,45.524113
732.0,180.0,FRPD1PDMMALB,Power Dot France,Power Dot France,5.909742,45.673994
2769.0,187.5,FRPD1PSYUMTB,Power Dot France,Power Dot France,1.333266,43.988266
36.0,18.0,FRS77E77096001,Bouygues E&S,Ecocharge77,2.700847,48.488678
672.0,200.0,FRPD1PMRBMON,Power Dot France,Power Dot France,6.519104,48.580468
36.0,18.0,FRS77E77377001,Bouygues E&S,Ecocharge77,2.740637,48.714993
7000.0,250.0,FRTSLP30140,Tesla,Tesla,43.533651,43.533651
172.0,100.0,FRPD1PHIPCHR,Power Dot France,Power Dot France,-1.597093,49.605507
222.0,100.0,FRPD1PRLVMTD,Power Dot France,Power Dot France,6.817193,47.499579
632.0,200.0,FRPD1PHOLPAR,Power Dot France,Power Dot France,4.108424,46.467713
672.0,200.0,FRPD1PNETLRL,Power Dot France,Power Dot France,-0.033082,44.587816
569.0,187.5,FRPD1PDUVCEC,Power Dot France,Power Dot France,-1.619169,49.635274
244.0,50.0,FRPD1PBBBARS,Power Dot France,Power Dot France,2.738301,50.299511
886.0,120.0,FRPD1PSYUAMG,Power Dot France,Power Dot France,4.202938,43.693188
36.0,18.0,FRS77E77253001,Bouygues E&S,Ecocharge77,2.694243,48.626202
36.0,18.0,FRS77E77527001,Bouygues E&S,Ecocharge77,3.003289,48.690327
4500.0,250.0,FRTSLP10702,Tesla,Tesla,45.693058,45.693058
122.0,50.0,FRPD1PITMRXB,Power Dot France,Power Dot France,1.093596,49.914235
522.0,50.0,FRPD1PCORCBR,Power Dot France,Power Dot France,3.221218,50.147649
372.0,100.0,FRPD1PIBSCHT,Power Dot France,Power Dot France,4.790138,46.254678
672.0,200.0,FRPD1PCHATRG,Power Dot France,Power Dot France,-2.211317,47.299731
2000.0,250.0,FRTSLP30253,Tesla,Tesla,49.111571,49.111571
44.0,22.0,FRS77E77405001,Bouygues E&S,Ecocharge77,3.18528,48.906219
900.0,150.0,FRTSLP2987,Tesla,Tesla,48.057341,48.057341
632.0,200.0,FRPD1PACCCHA,Power Dot France,Power Dot France,5.146131,48.087062
466.0,100.0,FRPD1PCORRRM,Power Dot France,Power Dot France,6.612041,48.003367
422.17025,200.0,FRPD1PINVCAR,Power Dot France,Power Dot France,2.383874,43.208185
122.0,50.0,FRPD1PSYUARB,Power Dot France,Power Dot France,5.75198,46.915747
36.0,18.0,FRS77E77088001,Bouygues E&S,Ecocharge77,2.568649,48.316978
672.0,200.0,FRPD1PITMUNI,Power Dot France,Power Dot France,1.470931,43.655185
4000.0,250.0,FRTSLP31398,Tesla,Tesla,47.500581,47.500581
1463.0,187.5,FRPD1PITMRSA,Power Dot France,Power Dot France,1.477819,43.535578
272.0,100.0,FRPD1PITMLDV,Power Dot France,Power Dot France,-3.120509,47.759889
672.0,200.0,FRPD1PIBSMLC,Power Dot France,Power Dot France,-3.588706,47.868991
1200.0,150.0,FRTSLP1762,Tesla,Tesla,46.669735,46.669735
672.0,100.0,FRPD1PITMTUL,Power Dot France,Power Dot France,1.775413,45.273067
46.0,24.0,FRS77E77118003,Bouygues E&S,Ecocharge77,2.68868,48.945433
46.0,24.0,FRS77E77175001,Bouygues E&S,Ecocharge77,2.62106068517595,48.66705812787814
6000.0,250.0,FRTSLP29905,Tesla,Tesla,45.573666,45.573666
44.0,22.0,FRS77E77316003,Bouygues E&S,Ecocharge77,2.8160501,48.3746018
632.0,200.0,FRPD1PFSTCSM,Power Dot France,Power Dot France,1.853344,47.896238
1048.0,188.0,FRPD1PCORMLL,Power Dot France,Power Dot France,6.520856,48.578996
1800.0,150.0,FRTSLP2583,Tesla,Tesla,48.830387,48.830387
44.0,22.0,FRPD1PRLCALB,Power Dot France,Power Dot France,2.671477,42.480528
547.0,187.5,FRPD1PPATHBE,Power Dot France,Power Dot France,2.973249,50.40405
792.0,200.0,FRPD1PINVCES,Power Dot France,Power Dot France,1.434633,47.429595
632.0,200.0,FRPD1PBRASAI,Power Dot France,Power Dot France,4.39422,48.944437
662.0,160.0,FRPD1PALDBOE,Power Dot France,Power Dot France,0.631925,44.184872
1000.0,125.0,FRTSLP1727,Tesla,Tesla,50.935041,50.935041
632.0,200.0,FRPD1PMATMLZ,Power Dot France,Power Dot France,6.176023,48.718748
632.0,200.0,FRPD1PCURLGU,Power Dot France,Power Dot France,2.371599,49.867704
44.0,22.0,FRPD1PNOVBLO,Power Dot France,Power Dot France,1.335611,47.591831
672.0,200.0,FRPD1PFJNPSG,Power Dot France,Power Dot France,1.396,43.534636
200.0,100.0,FRS77E77288006,Bouygues E&S,Ecocharge77,2.657548,48.555317
318.0,60.0,FRPD1PLCLBQC,Power Dot France,Power Dot France,-0.430873,47.34128
5000.0,250.0,FRTSLP30184,Tesla,Tesla,47.225998,47.225998
3244.0,187.5,FRPD1PELCPPN,Power Dot France,Power Dot France,2.883467,42.687274
122.0,50.0,FRPD1PGSTVDV,Power Dot France,Power Dot France,6.004123,43.137508
252.0,60.0,FRPD1PCRISOU,Power Dot France,Power Dot France,-1.332811,43.746011
1200.0,150.0,FRTSLP1770,Tesla,Tesla,43.76992,43.76992
432.0,120.0,FRPD1PACNJOY,Power Dot France,Power Dot France,2.162011,48.765443
36.0,18.0,FRS77E77076001,Bouygues E&S,Ecocharge77,3.250729,48.482674
552.0,160.0,FRPD1PALDESN,Power Dot France,Power Dot France,2.512902,48.694318
36.0,18.0,FRS77E77109001,Bouygues E&S,Ecocharge77,3.195108,48.616379
632.0,200.0,FRPD1PACCECL,Power Dot France,Power Dot France,2.838855,48.367294
274.0,60.0,FRPD1PIBSVSP,Power Dot France,Power Dot France,2.499863,49.28863
632.0,200.0,FRPD1PMRCCHA,Power Dot France,Power Dot France,4.920507,45.649403
432.0,120.0,FRPD1PCRISPM,Power Dot France,Power Dot France,-0.491614,43.873152
632.0,200.0,FRPD1PACCTRI,Power Dot France,Power Dot France,-2.210144,47.291959
3000.0,250.0,FRTSLP11606,Tesla,Tesla,45.525196,45.525196
547.0,187.5,FRPD1PITMIST,Power Dot France,Power Dot France,5.115875,47.530068
132.0,60.0,FRPD1PITMHCP,Power Dot France,Power Dot France,2.63803,50.452748
44.0,22.0,FRS77E77053003,Bouygues E&S,Ecocharge77,2.607417,48.690407
122.0,50.0,FRPD1PPYRALM,Power Dot France,Power Dot France,5.381341,43.483894
132.0,60.0,FRPD1PORBVLC,Power Dot France,Power Dot France,3.521656,50.349926
1200.0,150.0,FRTSLP1744,Tesla,Tesla,43.864589,43.864589
36.0,18.0,FRS77E77040001,Bouygues E&S,Ecocharge77,2.570593,48.525444
732.0,80.0,FRPD1PETXFTM,Power Dot France,Power Dot France,3.085726,50.584318
122.0,50.0,FRPD1PETRHGL,Power Dot France,Power Dot France,-1.440271,47.18559
36.0,18.0,FRS77E77336001,Bouygues E&S,Ecocharge77,2.830538,48.768833
342.0,160.0,FRPD1PGSTVVD,Power Dot France,Power Dot France,5.999576,43.136541
557.4,100.0,FRPD1PIBSMNQ,Power Dot France,Power Dot France,5.81357,43.808633
172.0,100.0,FRPD1PSYSALG,Power Dot France,Power Dot France,6.03765,49.347731
122.0,50.0,FRPD1PITMREZ,Power Dot France,Power Dot France,-1.53322,47.17995
36.0,18.0,FRS77E77426001,Bouygues E&S,Ecocharge77,2.828953,48.578262
952.0,200.0,FRPD1PIBSBZR,Power Dot France,Power Dot France,3.278445,43.334417
254.0,60.0,FRPD1PITMLOR,Power Dot France,Power Dot France,-3.388877,47.746397
344.0,150.0,FRPD1PITMNST,Power Dot France,Power Dot France,-0.200001,43.270729
46.0,24.0,FRS77E77118004,Bouygues E&S,Ecocharge77,2.6831629,48.9448571
1200.0,150.0,FRTSLP3020,Tesla,Tesla,43.121166,43.121166
662.0,160.0,FRPD1PCARLAC,Power Dot France,Power Dot France,-1.199501,45.000079
3000.0,250.0,FRTSLP21027,Tesla,Tesla,46.77357,46.77357
36.0,18.0,FRS77E77235001,Bouygues E&S,Ecocharge77,3.054889,48.991291
422.0,100.0,FRPD1PMBRLAN,Power Dot France,Power Dot France,-3.343099,47.774183
122.0,50.0,FRPD1PMBRPEV,Power Dot France,Power Dot France,0.203255,49.284242
46.0,24.0,FRS77E77306002,Bouygues E&S,Ecocharge77,2.686769,48.596839
132.0,60.0,FRPD1PBIOSFL,Power Dot France,Power Dot France,3.056705,45.039744
969.0,187.5,FRPD1PETXRVS,Power Dot France,Power Dot France,2.908253,42.777032
998.0,188.0,FRPD1PCRFLCR,Power Dot France,Power Dot France,3.943523,43.642945
4000.0,250.0,FRTSLP1736,Tesla,Tesla,45.7868,45.7868
412.0,120.0,FRPD1PHLFLTT,Power Dot France,Power Dot France,0.81125,49.476967
722.0,150.0,FRPD1PMATHUN,Power Dot France,Power Dot France,7.575642,47.590602
3000.0,250.0,FRTSLP1764,Tesla,Tesla,49.389739,49.389739
450.0,100.0,FRPD1PSYSCOL,Power Dot France,Power Dot France,7.339896,48.063357
132.0,60.0,FRPD1PGSTORG,Power Dot France,Power Dot France,4.839758,44.117712
1200.0,150.0,FRTSLP7137,Tesla,Tesla,45.518886,45.518886
372.0,100.0,FRPD1PHLFCSD,Power Dot France,Power Dot France,1.526591,44.151245
672.0,200.0,FRPD1PPICRMB,Power Dot France,Power Dot France,1.828089,48.630094
36.0,18.0,FRS77E77300001,Bouygues E&S,Ecocharge77,2.985625,48.941795
772.0,150.0,FRPD1PMATRON,Power Dot France,Power Dot France,3.076174,50.604107
1388.0,188.0,FRPD1PBOUBES,Power Dot France,Power Dot France,6.910811,47.640073
122.0,50.0,FRPD1PITMBER,Power Dot France,Power Dot France,0.477826,44.833108
632.17025,200.0,FRPD1PACTVRN,Power Dot France,Power Dot France,3.252988,49.640966
572.0,100.0,FRPD1PSYSMAX,Power Dot France,Power Dot France,6.173104,48.710644
192.0,120.0,FRPD1PNETLRD,Power Dot France,Power Dot France,-0.039262,43.108874
1622.0,187.5,FRPD1PCRISOY,Power Dot France,Power Dot France,0.207203,45.636651
36.0,18.0,FRS77E77284002,Bouygues E&S,Ecocharge77,2.91257,48.953554
36.0,18.0,FRS77E77099001,Bouygues E&S,Ecocharge77,2.70119,48.149586
254.0,60.0,FRPD1PITMLGC,Power Dot France,Power Dot France,1.352702,43.781307
922.0,150.0,FRPD1PITMBDB,Power Dot France,Power Dot France,-1.686289,47.844228
36.0,18.0,FRS77E77522001,Bouygues E&S,Ecocharge77,3.376131,48.455891
502.0,120.0,FRPD1PCNVVAN,Power Dot France,Power Dot France,-2.790614,47.668869
142.0,60.0,FRPD1PITMELV,Power Dot France,Power Dot France,-2.593953,47.724028
36.0,18.0,FRS77E77335001,Bouygues E&S,Ecocharge77,2.837548,48.973423
172.0,100.0,FRPD1PSYUPCX,Power Dot France,Power Dot France,-4.490191,48.043706
222.0,100.0,FRPD1PNETGHT,Power Dot France,Power Dot France,1.995845,43.767214
672.0,200.0,FRPD1PJARCHA,Power Dot France,Power Dot France,0.184856,45.692817
800.0,100.0,FRPD1PCORHAG,Power Dot France,Power Dot France,7.835907,48.80197
36.0,18.0,FRS77E77244001,Bouygues E&S,Ecocharge77,2.59789,48.283298
344.0,50.0,FRPD1PIMCPAR,Power Dot France,Power Dot France,1.921551,48.759376
432.0,120.0,FRPD1PITMDON,Power Dot France,Power Dot France,-2.083794,47.323479
44.0,22.0,FRS77E77483001,Bouygues E&S,Ecocharge77,2.924843,49.002518
2400.0,150.0,FRTSLP1747,Tesla,Tesla,50.583875,50.583875
264.0,60.0,FRPD1PSYUMEC,Power Dot France,Power Dot France,-0.162739,47.987575
672.0,200.0,FRPD1PBDMSPN,Power Dot France,Power Dot France,2.682708,48.280113
572.0,100.0,FRPD1PMAEABI,Power Dot France,Power Dot France,2.194486,43.929174
46.0,24.0,FRS77E77266002,Bouygues E&S,Ecocharge77,2.8359232,48.456305
132.0,60.0,FRPD1PTSQHBA,Power Dot France,Power Dot France,2.965183,50.386762
262.0,120.0,FRPD1PSTVBEV,Power Dot France,Power Dot France,2.118198,49.430393
36.0,18.0,FRS77E77039001,Bouygues E&S,Ecocharge77,2.588406,48.526657
210.0,50.0,FRPD1PMATVDA,Power Dot France,Power Dot France,3.163945,50.607306
747.0,187.5,FRPD1PIBSPTR,Power Dot France,Power Dot France,0.303683,46.550725
672.0,200.0,FRPD1PCRIORT,Power Dot France,Power Dot France,-0.779962,43.488013
372.0,100.0,FRPD1PSCIEZY,Power Dot France,Power Dot France,1.907746,47.945893
172.0,100.0,FRPD1PACTMGN,Power Dot France,Power Dot France,3.50968,47.972822
1204.1702500000001,200.0,FRPD1PMATCHA,Power Dot France,Power Dot France,6.289943,48.370208
502.0,120.0,FRPD1PVALMOU,Power Dot France,Power Dot France,6.972071,43.612368
1800.0,150.0,FRTSLP1723,Tesla,Tesla,47.017089,47.017089
44.0,22.0,FRS77E77475003,Bouygues E&S,Ecocharge77,2.949626,48.962367
394.0,100.0,FRPD1PCTKSRB,Power Dot France,Power Dot France,4.444629,45.480789
632.0,200.0,FRPD1PMATVRP,Power Dot France,Power Dot France,5.925908,49.470225
662.0,160.0,FRPD1PMBCPMR,Power Dot France,Power Dot France,1.630362,43.105025
672.0,200.0,FRPD1PCCVVNT,Power Dot France,Power Dot France,2.777342,49.410031
172.0,100.0,FRPD1PACTRUE,Power Dot France,Power Dot France,1.667409,50.265174
432.0,120.0,FRPD1PBUFLAN,Power Dot France,Power Dot France,-3.461781,48.745258
192.0,120.0,FRPD1PITMBRO,Power Dot France,Power Dot France,-2.251275,48.324597
1104.0,200.0,FRPD1PGAMCHA,Power Dot France,Power Dot France,-1.054749,46.694325
36.0,18.0,FRS77E77164001,Bouygues E&S,Ecocharge77,2.945185,48.463512
992.0,200.0,FRPD1PMATCYS,Power Dot France,Power Dot France,3.223198,50.566506
594.0,100.0,FRPD1PMTICHO,Power Dot France,Power Dot France,-0.930627,47.060222
3000.0,250.0,FRTSLP29159,Tesla,Tesla,48.985279,48.985279
44.0,22.0,FRS77E77053001,Bouygues E&S,Ecocharge77,2.611432,48.694917
437.5,187.5,FRPD1PCHASAI,Power Dot France,Power Dot France,5.996487,49.198015
132.0,60.0,FRPD1PBUTFRM,Power Dot France,Power Dot France,4.034885,50.023424
998.0,188.0,FRPD1PITSSPD,Power Dot France,Power Dot France,-1.073656,43.725234
892.0,100.0,FRPD1PCORBLO,Power Dot France,Power Dot France,1.296474,47.624291
822.0,100.0,FRPD1PFREBES,Power Dot France,Power Dot France,6.920828,47.642491
316.0,100.0,FRPD1PPATTON,Power Dot France,Power Dot France,-0.936918,45.954554
366.0,50.0,FRPD1PIMCSEC,Power Dot France,Power Dot France,3.052057,50.547417
362.0,120.0,FRPD1PCINROC,Power Dot France,Power Dot France,-1.425939,46.698003
122.0,50.0,FRPD1PVDTPSA,Power Dot France,Power Dot France,6.693174,43.452293
122.0,50.0,FRPD1PBRAVNR,Power Dot France,Power Dot France,3.253794,49.640713
512.0,120.0,FRPD1PACTPLR,Power Dot France,Power Dot France,-2.75448,48.533853
222.0,100.0,FRPD1PMRIFRS,Power Dot France,Power Dot France,-1.094505,45.986276
672.0,200.0,FRPD1PGFECON,Power Dot France,Power Dot France,0.369521,43.951182
122.0,50.0,FRPD1PIBSDOA,Power Dot France,Power Dot France,3.090023,50.379244
172.0,100.0,FRPD1PKYRVIN,Power Dot France,Power Dot France,1.368015,47.583239
6000.0,250.0,FRTSLP30254,Tesla,Tesla,47.32476,47.32476
372.0,100.0,FRPD1PBCPSLS,Power Dot France,Power Dot France,3.015754,42.773496
36.0,18.0,FRS77E77326001,Bouygues E&S,Ecocharge77,2.565315,48.580364
36.0,18.0,FRS77E77046001,Bouygues E&S,Ecocharge77,2.435735,48.257244
2872.0,200.0,FRPD1PCORLIV,Power Dot France,Power Dot France,2.553851,48.928827
36.0,18.0,FRS77E77439001,Bouygues E&S,Ecocharge77,3.023394,48.421993
322.0,100.0,FRPD1PITMSTJ,Power Dot France,Power Dot France,1.507626,43.650337
672.0,200.0,FRPD1PMRFORG,Power Dot France,Power Dot France,1.986175,48.927115
2400.0,150.0,FRTSLP1755,Tesla,Tesla,47.782546,47.782546
432.0,120.0,FRPD1PITMTOU,Power Dot France,Power Dot France,3.312898,47.721449
672.0,200.0,FRPD1PCHAREI,Power Dot France,Power Dot France,4.048526,49.214513
8750.0,250.0,FRTSLP28396,Tesla,Tesla,46.576511,46.576511
272.0,100.0,FRPD1PMBCCHA,Power Dot France,Power Dot France,4.927858,45.651324
3000.0,250.0,FRTSLP29767,Tesla,Tesla,46.340231,46.340231
1297.0,187.5,FRPD1PACTAUB,Power Dot France,Power Dot France,4.407325,44.617911
36.0,18.0,FRS77E77270001,Bouygues E&S,Ecocharge77,2.991441,48.862556
36.0,18.0,FRS77E77455001,Bouygues E&S,Ecocharge77,2.69905,48.652874
574.0,180.0,FRPD1PARCSDZ,Power Dot France,Power Dot France,4.965022,48.623248
244.0,50.0,FRPD1PITMELM,Power Dot France,Power Dot France,1.163636,49.007578
7000.0,250.0,FRTSLP16281,Tesla,Tesla,47.245792,47.245792
672.0,200.0,FRPD1PNTOLNN,Power Dot France,Power Dot France,-3.446274,48.740144
36.0,18.0,FRS77E77459001,Bouygues E&S,Ecocharge77,3.35406,48.537212
36.0,18.0,FRS77E77410001,Bouygues E&S,Ecocharge77,2.708959,48.58168
166.0,50.0,FRPD1PSYURSP,Power Dot France,Power Dot France,-3.849848,47.964168
900.0,150.0,FRTSLP1738,Tesla,Tesla,50.923739,50.923739
1500.0,150.0,FRTSLP1752,Tesla,Tesla,44.835346,44.835346
44.0,22.0,FRS77E77131004,Bouygues E&S,Ecocharge77,3.0939962681354234,48.820823057835575
36.0,18.0,FRS77E77368001,Bouygues E&S,Ecocharge77,3.281679,48.539558
36.0,18.0,FRS77E77316001,Bouygues E&S,Ecocharge77,2.850102,48.349255
194.0,100.0,FRPD1PKARASL,Power Dot France,Power Dot France,2.394852,50.661302
272.0,100.0,FRPD1PITMLRB,Power Dot France,Power Dot France,-0.880832,47.520234
594.0,100.0,FRPD1PSYUMRT,Power Dot France,Power Dot France,1.001016,43.196771
2000.0,250.0,FRTSLP30329,Tesla,Tesla,48.193224,48.193224
36.0,18.0,FRS77E77030001,Bouygues E&S,Ecocharge77,3.318183,48.85722
1622.0,187.5,FRPD1PMATCMK,Power Dot France,Power Dot France,4.727058,49.75834
952.0,200.0,FRPD1PIBIMOU,Power Dot France,Power Dot France,-1.429933,46.710539
1048.0,188.0,FRPD1PLCLACR,Power Dot France,Power Dot France,2.056611,48.961134
244.0,50.0,FRPD1PCORVCY,Power Dot France,Power Dot France,3.413609,46.143423
36.0,18.0,FRS77E77165001,Bouygues E&S,Ecocharge77,2.860826,48.50412
36.0,18.0,FRS77E77284005,Bouygues E&S,Ecocharge77,2.905077,48.950196
132.0,60.0,FRPD1PITMBON,Power Dot France,Power Dot France,1.913038,46.320064
1200.0,150.0,FRTSLP1768,Tesla,Tesla,47.949073,47.949073
272.0,100.0,FRPD1PKFCMTL,Power Dot France,Power Dot France,4.743961,44.525627
3000.0,250.0,FRTSLP59510,Tesla,Tesla,43.725146,43.725146
632.0,200.0,FRPD1PETXFYT,Power Dot France,Power Dot France,3.25513,49.859137
494.0,100.0,FRPD1PIBSHGN,Power Dot France,Power Dot France,7.756492,48.827812
122.0,50.0,FRPD1PCPNPJL,Power Dot France,Power Dot France,0.713531,44.387805
132.0,60.0,FRPD1PBVLUNI,Power Dot France,Power Dot France,1.496514,43.636222
982.0,160.0,FRPD1PMBRMTB,Power Dot France,Power Dot France,1.332604,43.987945
632.0,200.0,FRPD1PSYUGRM,Power Dot France,Power Dot France,6.88491,48.076273
662.0,160.0,FRPD1PBRCGHT,Power Dot France,Power Dot France,1.970805,43.760697
244.0,50.0,FRPD1PSOCREN,Power Dot France,Power Dot France,-1.732007,48.100373
122.0,50.0,FRPD1PTTMVLB,Power Dot France,Power Dot France,1.373351,43.764427
2400.0,150.0,FRTSLP2566,Tesla,Tesla,49.20873,49.20873
122.0,50.0,FRPD1PSYUVSB,Power Dot France,Power Dot France,0.848916,47.413621
672.0,200.0,FRPD1PITMGSS,Power Dot France,Power Dot France,-3.206997,48.063963
44.0,22.0,FRS77E77027001,Bouygues E&S,Ecocharge77,2.478393,48.139336
44.0,22.0,FRS77E77127002,Bouygues E&S,Ecocharge77,2.695989,48.670251
2304.0,187.5,FRPD1PCTIBGL,Power Dot France,Power Dot France,-0.531427,44.791074
650.0,200.0,FRPD1PMAILLB,Power Dot France,Power Dot France,7.389328,47.771241
272.0,100.0,FRPD1PSYULLG,Power Dot France,Power Dot France,5.57613,48.322347
5000.0,250.0,FRTSLP30045,Tesla,Tesla,44.177762,44.177762
1200.0,150.0,FRTSLP3305,Tesla,Tesla,43.331901,43.331901
3500.0,250.0,FRTSLP7320,Tesla,Tesla,46.573233,46.573233
502.0,120.0,FRPD1PLBGIGN,Power Dot France,Power Dot France,2.236867,48.73155
1347.5,188.0,FRPD1PSYUPRD,Power Dot France,Power Dot France,2.428804,42.625323
632.0,200.0,FRPD1PACCEVR,Power Dot France,Power Dot France,2.424555,48.615603
922.0,100.0,FRPD1PINTSAR,Power Dot France,Power Dot France,7.077588,48.737494
272.0,100.0,FRPD1PIBSESM,Power Dot France,Power Dot France,3.380145,49.03462
36.0,18.0,FRS77E77196001,Bouygues E&S,Ecocharge77,2.744265,48.939857
812.0,160.0,FRPD1PJARAVR,Power Dot France,Power Dot France,-1.350641,48.655069
244.0,100.0,FRPD1PSYUFQM,Power Dot France,Power Dot France,6.593895,49.048968
172.0,100.0,FRPD1PITMVVG,Power Dot France,Power Dot France,-1.435665,46.970702
1322.0,150.0,FRPD1PITMGAU,Power Dot France,Power Dot France,3.277911,49.824676
1000.0,125.0,FRTSLP1734,Tesla,Tesla,45.593224,45.593224
394.0,120.0,FRPD1PITMVLM,Power Dot France,Power Dot France,2.717943,47.972171
632.0,200.0,FRPD1PMATCHG,Power Dot France,Power Dot France,6.162857,48.7369
672.0,200.0,FRPD1PMBCHGT,Power Dot France,Power Dot France,-0.611978,43.637376
4000.0,250.0,FRTSLP33194,Tesla,Tesla,48.848308,48.848308
8000.0,250.0,FRTSLP1759,Tesla,Tesla,44.112164,44.112164
632.0,200.0,FRPD1PMATDEU,Power Dot France,Power Dot France,2.956514,50.737009
366.0,50.0,FRPD1PTGLVLC,Power Dot France,Power Dot France,4.928383,44.951098
1297.0,187.5,FRPD1PMATTGF,Power Dot France,Power Dot France,3.173292,50.7356
44.0,22.0,FRPD1PLBCEPI,Power Dot France,Power Dot France,6.475049,48.198431
772.0,100.0,FRPD1PRTPMTB,Power Dot France,Power Dot France,1.384485,44.039479
1200.0,150.0,FRTSLP1745,Tesla,Tesla,48.041259,48.041259
444.0,100.0,FRPD1PKFCVLR,Power Dot France,Power Dot France,4.348309,45.476402
46.0,24.0,FRS77E77288010,Bouygues E&S,Ecocharge77,2.660091,48.535773
494.0,100.0,FRPD1PMBCRIV,Power Dot France,Power Dot France,0.386577,45.750764
662.0,80.0,FRPD1PMATLMD,Power Dot France,Power Dot France,3.025081,50.63728
1116.0,150.0,FRPD1PCORVDV,Power Dot France,Power Dot France,2.826367,50.461194
672.0,200.0,FRPD1PAUBPTL,Power Dot France,Power Dot France,6.339066,46.907665
394.0,100.0,FRPD1PMBCBSC,Power Dot France,Power Dot France,4.615706,44.155114
36.0,18.0,FRS77E77482001,Bouygues E&S,Ecocharge77,2.92905,48.375946
122.0,50.0,FRPD1PITMCDM,Power Dot France,Power Dot France,0.37861,43.959303
922.0,187.5,FRPD1PMATLAN,Power Dot France,Power Dot France,3.213065,50.666928
36.0,18.0,FRS77E77178001,Bouygues E&S,Ecocharge77,2.674363,48.230656
244.0,50.0,FRPD1PSYUVIE,Power Dot France,Power Dot France,2.092669,47.238735
672.0,200.0,FRPD1PSPUFRI,Power Dot France,Power Dot France,4.587506,48.713984
3734.0,200.0,FRPD1PCORREI,Power Dot France,Power Dot France,4.05582,49.216266
672.0,200.0,FRPD1PPOMVDB,Power Dot France,Power Dot France,2.270805,48.650948
394.0,100.0,FRPD1PLDPBLG,Power Dot France,Power Dot France,1.481581,45.163264
672.0,200.0,FRPD1PGMVTRB,Power Dot France,Power Dot France,0.072267,43.268014
36.0,18.0,FRS77E77260001,Bouygues E&S,Ecocharge77,3.246524,48.513992
172.0,100.0,FRPD1PITMLGW,Power Dot France,Power Dot France,5.75123,49.515448
572.17025,100.0,FRPD1PMATWTR,Power Dot France,Power Dot France,3.219058,50.703372
44.0,22.0,FRS77E77317001,Bouygues E&S,Ecocharge77,2.8905,48.6065
36.0,18.0,FRS77E77232001,Bouygues E&S,Ecocharge77,2.825952,48.912483
44.0,22.0,FRS77E77222001,Bouygues E&S,Ecocharge77,2.798235,48.637143
244.0,50.0,FRPD1PMTIBJL,Power Dot France,Power Dot France,5.275455,45.58947
132.0,60.0,FRPD1PSYUPDV,Power Dot France,Power Dot France,6.145397,43.219383
2132.0,200.0,FRPD1PLECQUE,Power Dot France,Power Dot France,-3.421901,47.789996
36.0,18.0,FRS77E77045001,Bouygues E&S,Ecocharge77,2.657576,48.195572
216.0,100.0,FRPD1PITMMOY,Power Dot France,Power Dot France,6.893057,48.377979
650.0,200.0,FRPD1PINTECR,Power Dot France,Power Dot France,5.872424,48.679686
132.0,60.0,FRPD1PMBRAVR,Power Dot France,Power Dot France,-1.34232,48.67893
36.0,18.0,FRS77E77501001,Bouygues E&S,Ecocharge77,2.848262,48.325367
254.0,60.0,FRPD1PGDMSBZ,Power Dot France,Power Dot France,2.605289,44.397131
244.0,50.0,FRPD1PITMVLF,Power Dot France,Power Dot France,4.588572,48.729916
524.0,120.0,FRPD1PHLFAGL,Power Dot France,Power Dot France,0.129571,45.638135
672.0,200.0,FRPD1PJARGRT,Power Dot France,Power Dot France,1.885459,46.182399
5000.0,250.0,FRTSLP1726,Tesla,Tesla,45.166556,45.166556
122.0,50.0,FRPD1PSCIBLG,Power Dot France,Power Dot France,1.472085,45.146675
172.0,100.0,FRPD1PMBRARB,Power Dot France,Power Dot France,4.605821,45.825789
610.0,200.0,FRPD1PMATAVL,Power Dot France,Power Dot France,3.93724,50.117069
747.0,187.5,FRPD1PSCISCM,Power Dot France,Power Dot France,5.024199,43.410246
2000.0,250.0,FRTSLP30251,Tesla,Tesla,48.293372,48.293372
747.0,187.5,FRPD1PCORGRO,Power Dot France,Power Dot France,7.043609,49.135783
1200.0,150.0,FRTSLP3972,Tesla,Tesla,48.568243,48.568243
132.0,60.0,FRPD1PITMANN,Power Dot France,Power Dot France,4.897005,45.274321
3000.0,250.0,FRTSLP33188,Tesla,Tesla,49.248782,49.248782
672.0,200.0,FRPD1PACTAGL,Power Dot France,Power Dot France,0.183471,45.689892
432.0,120.0,FRPD1PBBFCON,Power Dot France,Power Dot France,1.334201,43.650641
46.0,24.0,FRS77E77475002,Bouygues E&S,Ecocharge77,2.94723149,48.958157
272.0,100.0,FRPD1PMBCHPN,Power Dot France,Power Dot France,-1.315481,43.382007
698.0,188.0,FRPD1PKRCLPM,Power Dot France,Power Dot France,5.365963,43.416752
44.0,22.0,FRPD1PASCROT,Power Dot France,Power Dot France,-0.452765,49.197268
36.0,18.0,FRS77E77001001,Bouygues E&S,Ecocharge77,2.56414,48.348167
5000.0,250.0,FRTSLP34050,Tesla,Tesla,47.046874,47.046874
632.0,200.0,FRPD1PCRFBRD,Power Dot France,Power Dot France,-0.634168,44.860543
366.0,100.0,FRPD1PBALDIJ,Power Dot France,Power Dot France,5.069686,47.35151
122.0,50.0,FRPD1PITMRSM,Power Dot France,Power Dot France,6.660383,47.922124
4000.0,250.0,FRTSLP29498,Tesla,Tesla,44.864843,44.864843
36.0,18.0,FRS77E77066001,Bouygues E&S,Ecocharge77,3.343567,48.69384
672.0,200.0,FRPD1PITMCER,Power Dot France,Power Dot France,3.014064,42.706431
432.0,120.0,FRPD1PCRIMOR,Power Dot France,Power Dot France,-0.922435,44.029889
36.0,18.0,FRS77E77435001,Bouygues E&S,Ecocharge77,2.541457,48.499256
1200.0,150.0,FRTSLP3045,Tesla,Tesla,49.786878,49.786878
632.0,200.0,FRPD1PSYUFON,Power Dot France,Power Dot France,1.449354,43.680776
594.0,100.0,FRPD1PITMCRM,Power Dot France,Power Dot France,2.16022,44.05228
3000.0,250.0,FRTSLP4003025,Tesla,Tesla,44.236376,44.236376
572.0,100.0,FRPD1PMDTPRP,Power Dot France,Power Dot France,2.890126,42.675371
172.0,100.0,FRPD1PMARCOU,Power Dot France,Power Dot France,5.597637,45.353711
997.0,187.5,FRPD1PSYUPNL,Power Dot France,Power Dot France,0.227668,44.841197
122.0,50.0,FRPD1PSYUSAU,Power Dot France,Power Dot France,-0.069571,47.251082
1222.0,150.0,FRPD1PCINSSB,Power Dot France,Power Dot France,-1.488871,47.190505
288.0,50.0,FRPD1PLCLTPL,Power Dot France,Power Dot France,3.174498,50.523047
1500.0,150.0,FRTSLP3826,Tesla,Tesla,49.863496,49.863496
506.0,120.0,FRPD1PITMBAP,Power Dot France,Power Dot France,2.853229,50.099361
2000.0,250.0,FRTSLP30400,Tesla,Tesla,45.871346,45.871346
244.0,50.0,FRPD1PITMSVT,Power Dot France,Power Dot France,5.814812,47.183326
36.0,18.0,FRS77E77067001,Bouygues E&S,Ecocharge77,2.601874,48.56225
122.0,50.0,FRPD1PMBRISH,Power Dot France,Power Dot France,7.241497,47.90349
5000.0,250.0,FRTSLP30985,Tesla,Tesla,43.16187,43.16187
632.0,200.0,FRPD1PCCTLVS,Power Dot France,Power Dot France,1.17298,49.210254
140.0,24.0,FRPD1PMRCVAV,Power Dot France,Power Dot France,2.291464,48.826858
672.0,200.0,FRPD1PLBRPAM,Power Dot France,Power Dot France,1.629874,43.114243
512.0,120.0,FRPD1PDATAVR,Power Dot France,Power Dot France,-1.368632,48.689854
1200.0,150.0,FRTSLP1740,Tesla,Tesla,45.266076,45.266076
36.0,18.0,FRS77E77456001,Bouygues E&S,Ecocharge77,3.289959,48.509865
2872.0,200.0,FRPD1PCORDIJ,Power Dot France,Power Dot France,5.002469,47.270311
1082.0,180.0,FRPD1PCORSBG,Power Dot France,Power Dot France,7.070734,48.739771
36.0,18.0,FRS77E77148001,Bouygues E&S,Ecocharge77,3.068942,49.090664
36.0,18.0,FRS77E77385002,Bouygues E&S,Ecocharge77,3.238447,48.850102
632.0,200.0,FRPD1PMBRPLM,Power Dot France,Power Dot France,4.11387,46.46719
872.0,100.0,FRPD1PCORWTG,Power Dot France,Power Dot France,3.053584,50.59339
672.0,200.0,FRPD1PIBBSFO,Power Dot France,Power Dot France,4.861194,45.690192
272.0,100.0,FRPD1PELDMRS,Power Dot France,Power Dot France,5.489497,43.289576
122.0,50.0,FRPD1PPMCANY,Power Dot France,Power Dot France,6.109078,45.894978
672.0,200.0,FRPD1PCCMLMM,Power Dot France,Power Dot France,3.632524,45.868104
36.0,18.0,FRS77E77003001,Bouygues E&S,Ecocharge77,2.531976,48.279121
572.0,100.0,FRPD1PACTNCB,Power Dot France,Power Dot France,1.435405,49.736249
244.0,50.0,FRPD1PITMLNG,Power Dot France,Power Dot France,5.339736,47.872185
3000.0,250.0,FRTSLP30181,Tesla,Tesla,44.637014,44.637014
7000.0,250.0,FRTSLP20264,Tesla,Tesla,49.079621,49.079621
4000.0,250.0,FRTSLP30951,Tesla,Tesla,46.330824,46.330824
4000.0,250.0,FRTSLP13281,Tesla,Tesla,49.253048,49.253048
294.0,100.0,FRPD1PLBCEMT,Power Dot France,Power Dot France,6.081559,45.933462
632.0,200.0,FRPD1PMATALA,Power Dot France,Power Dot France,3.38813,50.189972
122.0,50.0,FRPD1PACEVIL,Power Dot France,Power Dot France,2.44896,48.587591
244.0,100.0,FRPD1PLMCSOR,Power Dot France,Power Dot France,4.878797,44.00093
1200.0,150.0,FRTSLP1756,Tesla,Tesla,48.63861,48.63861
292.0,100.0,FRPD1PITMCRB,Power Dot France,Power Dot France,1.337895,43.649367
632.0,200.0,FRPD1PMATDLN,Power Dot France,Power Dot France,2.347789,50.160181
672.0,200.0,FRPD1PLBFGSR,Power Dot France,Power Dot France,1.785202,49.268417
872.0,100.0,FRPD1PITMSTQ,Power Dot France,Power Dot France,3.263229,49.851054
552.0,160.0,FRPD1PSYUVEY,Power Dot France,Power Dot France,5.831619,44.536459
672.0,200.0,FRPD1PBOULJE,Power Dot France,Power Dot France,6.304074,48.359609
2400.0,150.0,FRTSLP1722,Tesla,Tesla,43.493819,43.493819
36.0,18.0,FRS77E77057001,Bouygues E&S,Ecocharge77,3.236135,48.922424
792.0,200.0,FRPD1PETICHA,Power Dot France,Power Dot France,0.703418,47.340363
682.0,100.0,FRPD1PACCIBE,Power Dot France,Power Dot France,2.420392,48.620658
192.0,120.0,FRPD1PITMYOS,Power Dot France,Power Dot France,-1.024276,43.706943
3000.0,250.0,FRTSLP30255,Tesla,Tesla,45.033274,45.033274
4000.0,250.0,FRTSLP14836,Tesla,Tesla,45.820522,45.820522
632.0,200.0,FRPD1PSYSANO,Power Dot France,Power Dot France,6.949823,48.19297
36.0,18.0,FRS77E77182001,Bouygues E&S,Ecocharge77,3.305767,48.782028
432.0,120.0,FRPD1PLABLAN,Power Dot France,Power Dot France,-3.341638,47.778746
244.0,50.0,FRPD1PIMCETM,Power Dot France,Power Dot France,2.143073,48.442778
432.0,120.0,FRPD1PGAMROC,Power Dot France,Power Dot France,-1.4352,46.643002
732.0,180.0,FRPD1PIBSINV,Power Dot France,Power Dot France,1.14482,49.490191
632.0,200.0,FRPD1PACCBEA,Power Dot France,Power Dot France,2.112799,49.410166
166.0,50.0,FRPD1PCRFLBN,Power Dot France,Power Dot France,5.889812,43.932189
3000.0,250.0,FRTSLP30237,Tesla,Tesla,43.294681,43.294681
1500.0,150.0,FRTSLP6431,Tesla,Tesla,45.86723,45.86723
244.0,50.0,FRPD1PITMLHV,Power Dot France,Power Dot France,0.158024,49.509547
262.0,120.0,FRPD1PACTSPA,Power Dot France,Power Dot France,-0.027687,49.024567
36.0,18.0,FRS77E77403001,Bouygues E&S,Ecocharge77,3.324744,48.566856
598.0,188.0,FRPD1PMBRDVZ,Power Dot France,Power Dot France,4.691296,45.256256
166.0,50.0,FRPD1PITMBAI,Power Dot France,Power Dot France,2.744372,50.731127
36.0,18.0,FRS77E77386001,Bouygues E&S,Ecocharge77,2.639528,48.346184
838.0,100.0,FRPD1PDSJRAD,Power Dot France,Power Dot France,0.240604,47.943991
3000.0,250.0,FRTSLP29873,Tesla,Tesla,48.584701,48.584701
752.0,200.0,FRPD1PACCCLM,Power Dot France,Power Dot France,5.889694,45.594984
2488.0,150.0,FRPD1PFREARL,Power Dot France,Power Dot France,4.643129,43.704484
454.0,120.0,FRPD1PIBSLIL,Power Dot France,Power Dot France,3.009728,50.646519
36.0,18.0,FRS77E77043001,Bouygues E&S,Ecocharge77,3.259898,48.895916
632.0,200.0,FRPD1PITMMSC,Power Dot France,Power Dot France,3.199681,45.262366
